locationid,stationname,chinesename,latitude,longitude,pm25,pm10,o3,no2,so2,co,temperature,dewpoint,pressure,humidity,wind,est_time
1,Dongcheng Dongsi,,39.9304,116.423239,86,35,1,27,5,20,5,5,1020,100,2,20141101010000
2,"Temple of Heaven, Dongcheng",,39.887403,116.41324,127,137,1,28,3,17,5,5,1020,100,2,20141101010000
3,West Park officials,,39.930333,116.345162,97,116,1,31,2,19,5,5,1020,100,2,20141101010000
4,West Wanshou Nishinomiya,,39.879354,116.358183,75,22,1,37,2,17,5,5,1020,100,2,20141101010000
5,Chaoyang Olympic Sports Center,,39.983406,116.403253,94,44,1,33,5,16,5,5,1020,100,2,20141101010000
6,Chaoyang Agricultural Exhibition Hall,,39.938331,116.46715,94,137,1,32,4,17,5,5,1020,100,2,20141101010000
7,Haidian Wanliu,,39.988245,116.293062,101,49,1,29,6,22,5,5,1020,100,2,20141101010000
8,The Haidian northern New Area,,40.091313,116.180194,62,23,2,21,5,14,5,5,1020,100,2,20141101010000
9,Haidian Beijing Botanical Garden,,40.003252,116.213097,55,121,9,6,6,9,5,5,1020,100,2,20141101010000
10,Fengtai garden,,39.86423,116.285037,115,150,1,32,4,17,5,5,1020,100,2,20141101010000
11,Fengtai Yungang,,39.82535,116.152237,133,51,2,25,2,15,5,5,1020,100,2,20141101010000
12,Shijingshan city,,39.915286,116.190144,59,106,2,30,3,17,5,5,1020,100,2,20141101010000
13,"Fangshan, Liangxiang",,39.743357,116.14225,181,113,1,19,3,20,5,5,1020,100,2,20141101010000
14,"Huangcunzhen, Daxing",,39.719389,116.410219,200,86,1,22,2,17,5,5,1020,100,2,20141101010000
15,BDA,,39.796197,116.51197,161,149,3,31,5,16,5,5,1020,100,2,20141101010000
16,Tongzhou New Town,,39.887113,116.6689,128,157,1,28,7,14,5,5,1020,100,2,20141101010000
17,Shunyi New Town ,,40.128111,116.660908,155,117,1,26,2,25,5,5,1020,100,2,20141101010000
18,Changping Town,,40.218245,116.236084,55,18,8,17,3,7,5,5,1020,100,2,20141101010000
19,"Mentougou, Longquan Town",,39.938397,116.112323,57,17,3,16,3,10,5,5,1020,100,2,20141101010000
20,Pinggu town,,40.144433,117.106563,218,109,2,19,2,22,5,5,1020,100,2,20141101010000
21,Huairou town,,40.329104,116.63387,46,94,1,22,2,21,5,5,1020,100,2,20141101010000
22,The town of Miyun,,40.371186,116.838053,175,125,1,17,2,21,5,5,1020,100,2,20141101010000
23,Yanqing town,,40.454217,115.978106,74,-,2,20,5,15,5,5,1020,100,2,20141101010000
24,Changping Dingling,,40.293269,116.226108,62,103,10,9,4,6,5,5,1020,100,2,20141101010000
25,Badaling Northwest,,40.36623,115.994146,75,-,9,17,27,6,5,5,1020,100,2,20141101010000
26,Miyun Reservoir,,40.500157,116.91701,184,112,1,8,2,19,5,5,1020,100,2,20141101010000
27,"Donggaocun Zhen, Pinggu",,40.10142,117.126556,184,127,2,26,2,17,5,5,1020,100,2,20141101010000
28,"Yongledianzhen, Tongzhou",,39.713192,116.78905,188,-,1,31,5,15,5,5,1020,100,2,20141101010000
29,"Yufazhen, Daxing",,39.521203,116.306026,188,-,-,-,-,-,5,5,1020,100,2,20141101010000
30,"Liulihezhen, Fangshan",,39.581169,116.006089,181,141,1,22,3,15,5,5,1020,100,2,20141101010000
31,"Qianmen E St, Dongcheng",,39.900402,116.401242,135,-,1,26,2,20,5,5,1020,100,2,20141101010000
32,Yongdingmen Inner St,,39.877401,116.400238,135,-,2,41,7,19,5,5,1020,100,2,20141101010000
33,Xizhimen N St,,39.955352,116.355187,101,46,-,-,-,-,5,5,1020,100,2,20141101010000
34,South Ring Road,,39.857377,116.37421,102,102,1,41,5,17,5,5,1020,100,2,20141101010000
35,East Fourth Ring Road,,39.940273,116.489075,92,,-,-,-,-,5,5,1020,100,2,20141101010000
36,Beijing,,39.955906,116.474246,87,35,1,27,5,20,5,5,1020,100,1,20141101010000
37,Putuo,,31.232979,121.415378,160,64,5,19,14,9,18,16,1016,88,4,20141101010000
38,Yangpu Sipiao,,31.263795,121.540311,174,78,10,24,12,12,18,16,1016,88,4,20141101010000
39,Shanghai Normal College Primary Division,,31.199031,121.487719,165,68,8,21,6,11,18,16,1016,88,4,20141101010000
40,Dianshan Lake,,31.091338,120.982293,155,58,7,17,7,13,18,16,1016,88,4,20141101010000
41,Hongkou Liangcheng,,31.298906,121.47155,171,75,5,22,13,13,18,16,1016,88,4,20141101010000
42,Jingan,,31.224251,121.429637,165,69,6,21,15,11,18,16,1016,88,4,20141101010000
43,Shanghai Normal University,,31.163531,121.416643,163,66,8,24,14,12,18,16,1016,88,4,20141101010000
44,Chuansha,,31.188626,121.707342,163,64,5,21,12,13,18,16,1016,88,4,20141101010000
45,Zhangjiang,,31.204896,121.581215,164,70,7,23,14,11,18,16,1016,88,4,20141101010000
46,Lingshan Road,,31.226286,121.537317,168,71,7,22,13,9,18,16,1016,88,4,20141101010000
1080,City average,,31.228451,121.478227,166,70,6,22,12,11,18,16,1016,88,4,20141101010000
47,Shanghai,,31.202842,121.453493,161,67,6,22,5,11,18,16,1016,88,4,20141101010000
48,Guangzhou,,23.138517,113.263701,163,58,7,21,20,11,24,22,1014,89,0,20141101010000
49,"Huadu town, Guangzhou",,23.389121,113.220062,164,87,2,43,41,7,24,22,1014,89,0,20141101010000
50,"Luogang Zhenlong, Guangzhou",,23.308027,113.567032,158,78,5,26,9,6,24,22,1014,89,0,20141101010000
51,"LuHu, Guangzhou",,23.151743,113.281842,160,84,1,22,10,11,24,22,1014,89,0,20141101010000
52,"Tianhu, Guangzhou",,23.647433,113.629715,144,63,76,6,8,8,24,22,1014,89,0,20141101010000
53,"Zhudong, Guangzhou",,23.418406,113.078552,190,105,5,25,5,12,24,22,1014,89,0,20141101010000
54,"Modiesha station, Guangzhou",,23.103814,113.338238,134,80,3,32,16,8,24,22,1014,89,0,20141101010000
55,Zhuhai,,22.2677,113.581765,89,87,17,14,2,7,24,23,1013,94,1,20141101010000
1075,"Huicai technical school, Foshan",,23.039667,113.105492,160,61,11,26,16,7,24,21,1014,83,1,20141101010000
56,"Sanshuiyun donghai, Foshan",,23.185788,112.865368,268,57,10,31,17,13,24,21,1014,83,1,20141101010000
57,"Nanhai Bureau of Meteorology, Foshan",,23.046836,113.145764,139,54,8,27,14,13,24,21,1014,83,1,20141101010000
58,"Sanshui Monitoring Station, Foshan",,23.163551,112.890843,155,66,7,29,35,8,25,22,1014,83,2,20141101010000
1087,Foshan,,23.018995,113.126899,139,54,8,27,14,13,24,21,1014,83,1,20141101010000
59,"Ronggui street committee, Shunde",,22.762729,113.258356,132,62,17,14,22,10,24,22,1014,89,0,20141101010000
60,Shunde,,22.80246,113.298701,144,54,13,22,25,6,-,-,0,-,-,20141101010000
61,"Donghu, Jiangmen",,22.590411,113.087351,154,78,15,23,6,5,25,23,1013,89,0,20141101010000
62,"Taoyuan Atmosphere Premier Station, Jiangmen",,22.72489,112.93404,164,87,5,14,6,12,25,23,1013,89,0,20141101010000
63,Jiangmen,,22.576047,113.087351,154,78,15,23,6,5,25,23,1013,89,0,20141101010000
64,"Kengkouzi station, Zhaoqing",,23.158865,112.570287,153,65,34,13,8,7,24,22,1014,89,0,20141101010000
65,"Mugangzi station, Zhaoqing",,23.067961,112.431934,167,80,6,30,9,11,24,22,1014,89,0,20141101010000
67,Zhaoqing,,23.044571,112.470346,162,69,37,15,11,11,24,22,1014,89,0,20141101010000
68,"Jinguo Bay, Huizhou",,22.937223,114.385567,102,34,17,6,3,4,26,23,1014,83,2,20141101010000
1091,"Xiabu, Huizhou",,23.077493,114.410275,122,54,23,12,5,2,26,23,1014,83,2,20141101010000
69,"Xijiao, Huizhou",,23.338178,114.112867,102,48,3,9,4,5,26,23,1014,83,2,20141101010000
70,"Jiangbei, Huizhou",,23.111706,114.415274,134,66,23,17,5,3,26,23,1014,83,2,20141101010000
71,"Huiyang chuanhu, Huizhou",,22.814485,114.329292,142,53,10,22,7,7,26,23,1014,83,2,20141101010000
72,"Daya bay management committee, Huizhou",,22.739283,114.53631,107,64,6,21,5,4,26,23,1014,83,2,20141101010000
73,Huizhou,,23.109349,114.421164,134,66,23,17,5,3,26,23,1014,83,2,20141101010000
74,"Guancheng No.2 water plant, Dongguan",,23.057294,113.753254,167,125,6,32,25,8,26,23,1014,83,2,20141101010000
75,"Dongcheng Shijing, Dongguan",,23.010039,113.799529,137,58,4,22,6,5,26,23,1014,83,2,20141101010000
76,"Nancheng Xiping, Dongguan",,22.963051,113.743494,156,79,26,30,9,6,26,23,1014,83,2,20141101010000
77,"Nancheng Yuanling, Dongguan",,23.025058,113.751308,149,65,9,33,12,7,26,23,1014,83,2,20141101010000
78,Dongguan,,23.017813,113.756958,149,65,9,33,12,7,26,23,1014,83,2,20141101010000
79,"Zimaling, Zhongshan",,22.505112,113.407183,99,37,6,5,8,5,25,23,1013,89,0,20141101010000
80,"Yangtze River tourist area, Zhongshan",,22.48589,113.439054,89,35,7,6,2,5,25,23,1013,89,0,20141101010000
81,"Huabai Park, Zhongshan",,22.51839,113.374362,152,72,14,12,12,9,25,23,1013,89,0,20141101010000
82,Zhongshan,,22.513997,113.398277,99,37,6,5,8,5,25,23,1013,89,0,20141101010000
83,"No.8 middle school, Shaoguan",,24.767777,113.583537,162,73,18,15,22,11,22,20,1015,84,1,20141101010000
83,"No.8 middle school, Shaoguan",,24.767777,113.583537,162,73,18,15,22,11,22,20,1015,84,1,20141101010000
84,"Forest area, Shaoguan",,24.796106,113.612131,165,74,14,9,21,11,22,20,1015,84,1,20141101010000
84,"Forest area, Shaoguan",,24.796107,113.612131,165,74,14,9,21,11,22,20,1015,84,1,20141101010000
86,"Shaoguan University, Shaoguan",,24.790864,113.646598,167,76,8,22,12,6,22,20,1015,84,1,20141101010000
86,"Shaoguan University, Shaoguan",,24.790864,113.646599,167,76,8,22,12,6,22,20,1015,84,1,20141101010000
88,"Qujiang Monitoring Station, Shaoguan",,24.683042,113.60157,175,75,15,30,14,11,22,20,1015,84,1,20141101010000
88,"Qujiang Monitoring Station, Shaoguan",,24.683042,113.60157,175,75,15,30,14,11,22,20,1015,84,1,20141101010000
89,Shaoguan,,24.807342,113.602712,165,74,14,9,21,11,22,20,1015,84,1,20141101010000
90,"Chaonanzi Station, Shantou",,23.251213,116.406762,206,182,14,23,23,20,23,21,1015,88,1,20141101010000
91,Shantou,,23.350642,116.686306,153,69,12,22,32,20,23,21,1015,88,1,20141101010000
92,"City Environmental Monitoring Station, Zhanjiang",,21.220431,110.397317,55,40,20,11,3,7,24,22,1012,91,1,20141101010000
93,"EPB Dormitory, Zhanjiang",,21.197376,110.406487,63,30,19,10,4,3,24,22,1012,91,1,20141101010000
94,"Xiashan Swimming Park, Zhanjiang",,21.200431,110.415655,65,30,17,4,7,6,24,22,1012,91,1,20141101010000
95,"Zhanjiang Theatre, Zhanjiang",,21.268177,110.366445,78,50,18,9,5,21,24,22,1012,91,1,20141101010000
96,"Mazhang EPA, Zhanjiang",,21.265486,110.335993,117,56,4,16,9,10,24,22,1012,91,1,20141101010000
97,"Potou District EPB, Zhanjiang",,21.247604,110.454508,74,47,14,16,3,11,24,22,1012,91,1,20141101010000
98,Zhanjiang,,21.26832,110.363883,78,50,18,9,5,21,24,22,1012,91,1,20141101010000
99,"Maogang sub-office EPB, Maoming",,21.466435,111.033462,114,48,17,3,5,3,26,22,0,78,2,20141101010000
100,"Petrochemical No. 7 elementaty school, Maoming",,21.648905,110.937861,132,50,14,9,10,6,26,22,0,78,2,20141101010000
101,"Jiankang road, Maoming",,21.662211,110.909482,112,49,12,13,13,7,26,22,0,78,2,20141101010000
102,"Gaoling, Maoming",,21.690558,110.871146,87,53,12,12,43,6,26,22,0,78,2,20141101010000
1094,Maoming,,21.660223,110.929968,112,49,12,13,13,7,26,22,0,78,2,20141101010000
103,"Jiaying University, Meizhou",,24.325415,116.12816,161,81,7,16,6,14,23,21,1015,88,1,20141101010000
104,"Mexian new town, Meizhou",,24.269283,116.084546,169,83,3,16,7,14,23,21,1015,88,1,20141101010000
105,"Environmental Monitoring Center, Meizhou",,24.262778,116.129621,171,90,7,17,12,14,23,21,1015,88,1,20141101010000
1095,Meizhou,,24.285988,116.127065,171,90,7,17,12,14,23,21,1015,88,1,20141101010000
106,"City EPA, Shanwei",,22.772349,115.370227,142,51,28,7,7,9,22,22,1013,96,1,20141101010000
107,"City government, Shanwei",,22.787161,115.375536,142,48,26,14,9,7,22,22,1013,96,1,20141101010000
108,"Xincheng Middle School, Shanwei",,22.789851,115.367124,139,53,22,7,4,6,22,22,1013,96,1,20141101010000
1099,Shanwei,,22.783576,115.38022,139,53,22,7,8,6,22,22,1013,96,1,20141101010000
109,"No.3 elementary school, Heyuan",,23.755946,114.699091,137,53,10,27,19,8,22,20,1015,80,2,20141101010000
109,"No.3 elementary school, Heyuan",,23.75435,114.703514,137,53,10,27,19,8,22,20,1015,80,2,20141101010000
111,"City water company, Heyuan",,23.754246,114.682459,159,116,3,35,43,10,22,20,1015,80,2,20141101010000
111,"City water company, Heyuan",,23.688709,114.954652,159,116,3,35,43,10,22,20,1015,80,2,20141101010000
113,"Heyuan high school, Heyuan",,23.720666,114.693879,127,54,7,19,12,8,22,20,1015,80,2,20141101010000
113,"Heyuan high school, Heyuan",,23.720037,114.699563,127,54,7,19,12,8,22,20,1015,80,2,20141101010000
115,Heyuan,,23.740888,114.705147,127,54,7,19,12,8,22,20,1015,80,2,20141101010000
116,"Yuanyang Lake, Yangjiang",,21.855869,111.983676,151,61,15,20,2,7,24,22,1014,86,1,20141101010000
1100,Yangjiang,,21.855227,111.987308,151,61,12,20,2,7,24,22,1014,86,1,20141101010000
118,"Town governement, Qingyuan",,23.708005,113.026215,180,119,36,26,27,13,24,21,1014,83,1,20141101010000
119,"Fupin district, Qingyuan",,23.624781,113.067713,154,87,5,35,33,17,24,21,1014,83,1,20141101010000
121,"Environment protection office, Qingyuan",,23.691109,113.047948,181,116,24,30,20,13,24,21,1014,83,1,20141101010000
121,"Environment protection office, Qingyuan",,23.685931,113.053239,181,116,24,30,20,13,24,21,1014,83,1,20141101010000
123,"Fengcheng Subdistrict, Qingyuan",,23.695447,113.068189,180,119,36,26,27,13,25,22,1014,83,2,20141101010000
124,Qingyuan,,23.679304,113.061513,181,116,24,30,20,13,24,21,1014,83,1,20141101010000
125,"Xiyuan Road, Chaozhou",,23.668654,116.638272,170,99,16,6,6,9,23,21,1015,88,1,20141101010000
126,"Archives Bureau, Chaozhou",,23.667881,116.649104,156,78,18,8,7,12,23,21,1015,88,1,20141101010000
127,"Municipal Corporation, Chaozhou",,23.65035,116.621859,172,74,14,10,9,14,23,21,1015,88,1,20141101010000
1101,Chaozhou,,23.654204,116.626969,172,74,14,10,9,14,23,21,1015,88,1,20141101010000
128,"Donghu Park, Jieyang",,23.532877,116.374427,158,85,26,13,29,9,23,21,1015,88,1,20141101010000
129,"Yuhu Middle School, Jieyang",,23.52682,116.414123,177,110,14,18,26,9,23,21,1015,88,1,20141101010000
130,"Experimental Primary School, Jieyang",,23.571473,116.364137,157,70,18,16,31,9,23,21,1015,88,1,20141101010000
1102,Jieyang,,23.547596,116.37754,158,85,26,13,29,9,23,21,1015,88,1,20141101010000
131,"City Environmental Monitoring Station, Yunfu",,22.936779,112.042248,82,56,3,12,5,11,24,22,1014,89,0,20141101010000
132,"The new city government headquarters, Yunfu",,22.914275,112.044475,117,50,10,7,5,18,24,22,1014,89,0,20141101010000
133,"Muyang police sub-station, Yunfu",,22.951267,112.05923,107,38,6,17,13,14,24,22,1014,89,0,20141101010000
1103,Yunfu,,22.912436,112.049811,117,50,10,7,5,18,24,22,1014,89,0,20141101010000
134,Yantian,,22.587949,114.266899,107,54,26,23,9,12,26,23,1014,83,2,20141101010000
135,Kwai Chung,,22.572837,113.867166,154,83,10,35,4,12,26,23,1014,83,2,20141101010000
135,Kwai Chung,,22.354168,114.134558,154,83,10,35,4,12,26,23,1014,83,2,20141101010000
137,Nanyou,,22.513802,113.928051,122,65,15,26,6,10,26,23,1014,83,2,20141101010000
138,Meisha,,22.59611,114.318345,80,77,16,17,5,9,26,23,1014,83,2,20141101010000
139,Xi xiang,,22.717524,114.252304,154,84,9,30,6,17,26,23,1014,83,2,20141101010000
140,Liyuan,,22.54732,114.101205,102,51,7,24,2,10,26,23,1014,83,2,20141101010000
1072,Kwai Chung,,22.627947,114.428875,91,52,11,16,2,12,26,23,1014,83,2,20141101010000
1072,Kwai Chung,,22.354168,114.134558,91,52,11,16,2,12,26,23,1014,83,2,20141101010000
141,OCT,,22.539549,113.992458,119,81,4,27,2,12,26,23,1014,83,2,20141101010000
142,Honghu,,22.559647,114.121976,114,125,4,33,2,8,26,23,1014,83,2,20141101010000
143,Mission Hills,,22.694131,114.050496,154,75,3,18,4,13,26,23,1014,83,2,20141101010000
144,Shenzhen,,22.540382,114.062982,154,125,26,35,9,17,-,-,0,-,-,20141101010000
145,Chengdu,,30.622581,104.069564,80,31,4,23,5,9,16,11,1021,72,2,20141101010000
146,"Jinquan lianghe, Chengdu",,30.710359,103.974209,61,23,6,20,5,8,16,10,1020,68,1,20141101010000
147,"Shilidian, Chengdu",,30.684718,104.17845,80,46,5,19,6,6,16,10,1020,68,1,20141101010000
148,"Sanwayao, Chengdu",,30.568159,104.081524,61,33,,,,8,16,10,1020,68,1,20141101010000
149,"Shahepu, Chengdu",,30.633685,104.120536,74,41,5,24,4,8,16,10,1020,68,1,20141101010000
150,"Liang Lane, Chengdu",,30.682601,104.076522,85,52,13,21,13,8,16,10,1020,68,1,20141101010000
151,"Caotang Temple, Chengdu",,30.651891,104.0284,61,31,4,23,5,9,16,10,1020,68,1,20141101010000
152,"Lingyansi, Chengdu",,31.025729,103.615022,38,21,25,13,4,2,16,10,1020,68,1,20141101010000
153,"Fuleshan, Mianyang",,31.472493,104.7806,42,20,22,4,5,5,15,8,1018,52,2,20141101010000
154,"High-tech Zone Water Company, Mianyang",,31.463309,104.674293,50,20,17,15,16,4,15,8,1018,52,2,20141101010000
155,"No.3 water company, Mianyang",,31.505002,104.731054,72,37,13,16,4,6,15,8,1018,52,2,20141101010000
156,Mianyang,,31.465174,104.681731,72,37,22,18,16,6,15,8,1018,52,2,20141101010000
157,"Dongshan Park, Deyang",,31.118648,104.424587,38,34,18,26,5,5,16,10,1020,68,1,20141101010000
158,"Xixiaoqu, Deyang",,31.131159,104.390972,30,21,9,15,6,7,16,10,1020,68,1,20141101010000
159,"City Procuratorate, Deyang",,31.114554,104.407986,30,23,5,16,1,7,16,10,1020,68,1,20141101010000
160,"Refractory Factory, Deyang",,31.108606,104.356506,74,39,13,14,6,5,16,10,1020,68,1,20141101010000
161,Deyang,,31.124715,104.400703,74,39,18,26,6,7,16,10,1020,68,1,20141101010000
162,"Nongnongping, Panzhihua",,26.566698,101.695438,78,43,1,12,3,13,10,9,0,91,0,20141101010000
163,"Hemenkou, Panzhihua",,26.589072,101.578312,97,52,4,8,8,14,10,9,0,91,0,20141101010000
164,"Bingcaogang, Panzhihua",,26.58143,101.718473,53,34,1,1,3,15,10,9,0,91,0,20141101010000
165,"Renhe, Panzhihua",,26.498166,101.746887,46,20,4,12,2,13,10,9,0,91,0,20141101010000
166,"Jinjina, Panzhihua",,26.553226,101.84862,61,17,2,6,3,9,10,9,0,91,0,20141101010000
167,Panzhihua,,26.578779,101.720211,97,52,4,12,8,15,10,9,0,91,0,20141101010000
168,"Shima Middle School, Yibin",,28.815979,104.599199,76,30,10,9,29,9,15,14,1019,93,2,20141101010000
169,"Municipal party committee, Yibin",,28.762654,104.624834,61,14,7,9,5,7,15,14,1019,93,2,20141101010000
170,"No. 4 middle school, Yibin",,28.783257,104.608407,63,21,10,8,2,6,15,14,1019,93,2,20141101010000
171,"City government, Yibin",,28.760477,104.644079,65,22,10,10,5,7,15,14,1019,93,2,20141101010000
172,"Huangjinzui, Yibin",,28.712319,104.578389,82,33,11,7,8,7,15,14,1019,93,2,20141101010000
173,"Shaping Middle School, Yibin",,28.795569,104.681393,25,7,14,6,7,7,15,14,1019,93,2,20141101010000
174,Yibin,,28.748384,104.645766,82,33,14,10,29,9,15,14,1019,93,2,20141101010000
175,"Datang Hill, Zigong",,29.359969,104.757388,68,19,19,10,4,1,16,13,0,83,3,20141101010000
176,"Yanma Road, Zigong",,29.355752,104.724036,21,29,19,16,29,2,16,13,0,83,3,20141101010000
177,"Tanmulin Street, Zigong",,29.353555,104.777397,53,31,21,7,13,5,16,13,0,83,3,20141101010000
178,"Chunhua Road, Zigong",,29.33825,104.771895,65,29,12,6,7,7,16,13,0,83,3,20141101010000
179,Zigong,,29.33617,104.781138,68,31,21,16,29,7,16,13,0,83,3,20141101010000
180,"Jiushi Hill, Luzhou",,28.955347,105.434207,55,23,18,4,1,4,16,14,0,89,2,20141101010000
181,"Xiaoshishang Port, Luzhou",,28.899583,105.447192,70,22,8,6,3,6,16,14,0,89,2,20141101010000
182,"Lantianxian Bridge, Luzhou",,28.852766,105.4358,59,25,14,7,2,2,16,14,0,89,2,20141101010000
183,"City Environment Monitoring Station, Luzhou",,28.895898,105.435802,46,19,7,13,2,3,16,14,0,89,2,20141101010000
184,Luzhou,,28.868782,105.445938,70,25,18,13,3,6,16,14,0,89,2,20141101010000
185,"City Committee, Nanchong",,30.799993,106.082906,70,24,6,3,2,3,16,15,1017,88,3,20141101010000
186,"Refinery Factory, Nanchong",,30.819412,106.10712,74,30,12,4,2,2,16,15,1017,88,3,20141101010000
187,"Gaoping District Monitoring Station, Nanchong",,30.783291,106.110417,85,12,27,16,4,7,16,15,1017,88,3,20141101010000
188,"Jialing District EPB, Nanchong",,30.761255,106.06818,76,25,22,10,3,2,16,15,1017,88,3,20141101010000
189,"City Environmental Monitoring Station, Nanchong",,30.836519,106.11272,70,20,24,17,7,7,16,15,1017,88,3,20141101010000
190,Nanchong,,30.835511,106.114717,85,30,27,36,7,7,16,15,1017,88,3,20141101010000
1249,"City Monitoring Station, Neijiang",,29.592673,105.036234,68,38,15,5,11,3,16,13,0,83,3,20141101010000
1250,"Dongxing District Government , Neijiang",,29.592148,105.074966,76,41,15,5,3,1,16,13,0,83,3,20141101010000
1251,"No 2 middle school, Neijiang",,29.579135,105.068548,85,34,12,8,9,2,16,13,0,83,3,20141101010000
1252,Neijiang,,29.577653,105.06166,95,41,15,8,11,4,16,13,0,83,3,20141101010000
1253,"City Monitoring Station, Suining",,30.610641,105.683583,50,30,40,8,4,31,15,11,0,72,5,20141101010000
1254,"Administrative center , Suining",,30.63206,105.819747,34,28,22,5,6,4,15,11,0,72,5,20141101010000
1255,Suining,,30.530053,105.596307,61,30,40,8,14,31,15,11,0,72,5,20141101010000
1256,"City Monitoring Station, Leshan",,29.560651,103.759211,34,13,16,4,2,6,14,11,0,82,3,20141101010000
1257,"Leshan Giant Buddha Scenic Area , Leshan",,29.543938,103.772706,34,13,15,6,2,6,14,11,0,82,3,20141101010000
1258,Leshan,,29.54935,103.767777,42,16,16,11,3,7,14,11,0,82,3,20141101010000
1259,"Heilongtan , Meishan",,30.047726,103.900649,42,18,17,3,2,5,16,10,1020,68,1,20141101010000
1260,"Bureau of Meteorology, Meishan",,30.084591,103.843715,85,37,10,18,4,7,16,10,1020,68,1,20141101010000
1261,"Xuguang Community , Meishan",,30.066277,103.8516,76,34,9,19,5,2,16,10,1020,68,1,20141101010000
1262,"City Monitoring Station, Meishan",,30.059205,103.836229,70,27,9,18,8,5,16,10,1020,68,1,20141101010000
1263,Meishan,,30.072618,103.85064,85,37,10,19,8,7,16,10,1020,68,1,20141101010000
1264,"Ziyang middle school, Ziyang",,30.147763,104.638024,55,29,23,3,5,7,16,13,0,83,3,20141101010000
1265,Ziyang,,30.126054,104.63004,59,29,23,11,13,10,16,13,0,83,3,20141101010000
191,Shenyang US Consulate,,41.785668,123.432865,411,489,,43,54,,8,4,1017,76,2,20141101010000
192,"Huishan, Shenyang",,41.835421,123.647773,596,668,9,49,24,24,7,4,1017,81,2,20141101010000
193,"Hunnan, Shenyang",,41.758263,123.540809,548,694,3,43,40,22,8,4,1017,76,2,20141101010000
194,"Zhangshi, Shenyang",,41.771679,123.289859,436,482,2,36,43,18,7,4,1017,81,2,20141101010000
195,"Artillery College, Shenyang",,41.835749,123.547799,323,671,8,47,59,22,8,4,1017,76,2,20141101010000
196,"Beiling, Shenyang",,41.849633,123.434146,492,488,2,39,24,19,7,4,1017,81,2,20141101010000
197,"Wenyi Road, Shenyang",,41.767444,123.416144,520,489,9,43,54,21,8,4,1017,76,2,20141101010000
198,"Xiaoheyan, Shenyang",,41.779828,123.484015,432,414,2,54,113,23,7,4,1017,81,2,20141101010000
199,"Taiyuan Street, Shenyang",,41.799646,123.406146,427,382,2,49,54,22,7,4,1017,81,2,20141101010000
200,"Ermao, Shenyang",,41.783011,123.366679,496,571,21,55,84,20,8,4,1017,76,2,20141101010000
201,"Liaoning University, Shenyang",,41.830704,123.361071,464,384,3,28,35,18,8,4,1017,76,2,20141101010000
202,Shenyang,,41.808126,123.437611,456,382,2,49,54,22,7,4,1017,81,2,20141101010000
1104,"wenhua street, Shenyang , Shenyang",,41.774139,123.441839,520,489,9,43,54,22,7,4,1017,81,2,20141101010000
1105,"Tanglin Road , Shenyang , Shenyang",,41.823665,123.562317,323,671,4,47,59,23,7,4,1017,81,2,20141101010000
203,"Ganjingzi, Dalian",,38.9747,121.616893,232,148,22,47,7,17,15,11,1017,77,3,20141101010000
204,"Zhoushuizi, Dalian",,38.951928,121.569981,279,176,13,36,21,25,12,11,1017,94,2,20141101010000
205,"Xinghai No 3 station, Dalian",,38.885779,121.568864,288,156,25,32,30,14,15,11,1017,77,3,20141101010000
206,"Qingniwa Bridge, Dalian",,38.91274,121.638018,274,160,15,62,30,17,15,11,1017,77,3,20141101010000
207,"Fujiazhuang, Dalian",,38.864647,121.629947,253,160,15,28,59,14,15,11,1017,77,3,20141101010000
208,"Qixianling, Dalian",,38.856978,121.523169,246,148,14,25,3,12,12,11,1017,94,2,20141101010000
209,"Lushun, Dalian",,38.808946,121.264063,301,161,16,38,30,15,15,11,1017,77,3,20141101010000
210,"Jinzhou, Dalian",,39.132192,121.753259,298,187,12,10,2,14,15,11,1017,77,3,20141101010000
211,"BDA, Dalian",,39.05213,121.782022,271,184,12,37,21,17,15,11,1017,77,3,20141101010000
212,"D&D Port, Dalian",,39.064087,121.981874,296,150,11,17,1,13,15,11,1017,77,3,20141101010000
213,Dalian,,38.91478,121.619625,274,160,15,62,30,17,-,-,0,-,-,20141101010000
214,"Bearing Factory, Dandong",,40.068929,124.345703,169,116,2,23,30,25,10,4,1016,55,1,20141101010000
215,"Financial school, Dandong",,40.158723,124.432593,162,96,3,31,58,13,10,4,1016,55,1,20141101010000
216,"Yuanbaoshan water, Dandong",,40.149431,124.391698,181,121,3,23,33,16,10,4,1016,55,1,20141101010000
217,"Experimental Primary School, Dandong",,39.887343,124.158056,191,143,1,37,77,24,10,4,1016,55,1,20141101010000
218,Dandong,,40.002046,124.360479,191,143,3,37,77,25,10,4,1016,55,1,20141101010000
1106,"minzhu bridge, Dandong , Dandong",,40.112974,124.373604,206,158,2,41,61,24,10,4,1016,55,1,20141101010000
1107,"yuanbaoshan, Dandong , Dandong",,40.146298,124.399081,181,121,3,23,33,16,10,4,1016,55,1,20141101010000
1108,"linjiang houjie, Dandong , Dandong",,40.152757,124.431745,162,96,3,31,58,13,10,4,1016,55,1,20141101010000
219,"BDA, Panjin",,41.157144,122.06645,458,389,3,41,20,26,11,1,0,50,3,20141101010000
220,"Xinglongtai, Panjin",,41.140948,122.111343,438,365,1,33,17,20,11,1,0,50,3,20141101010000
221,"Dingxiang, Panjin",,41.16139,121.928781,362,186,5,31,6,16,11,1,0,50,3,20141101010000
222,Panjin,,41.122089,122.076206,458,389,5,41,20,26,11,1,0,50,3,20141101010000
223,"No.3 water company, Yingkou",,40.682052,122.385352,275,193,9,34,20,18,8,5,1018,73,1,20141101010000
224,"Yingkou University, Yingkou",,40.683689,122.388285,221,188,6,35,14,19,8,5,1018,73,1,20141101010000
225,"Botanical garden, Yingkou",,40.711674,122.281568,319,174,5,31,8,19,8,5,1018,73,1,20141101010000
226,Yingkou,,40.668578,122.24059,319,174,5,31,8,19,8,5,1018,73,1,20141101010000
1109,"jinghu west street, Yingkou , Yingkou",,40.653831,122.221943,275,193,9,34,20,18,8,5,1018,73,1,20141101010000
1110,"Daqing Road , Yingkou , Yingkou",,40.709181,122.28243,319,174,5,31,8,19,8,5,1018,73,1,20141101010000
227,"Xishanpo, Huludao",,40.724078,120.921974,254,470,4,38,54,22,,,0,,,20141101010000
228,"Huagong hospital, Huludao",,40.755662,120.848435,191,232,4,32,55,15,,,0,,,20141101010000
229,"New district park, Huludao",,40.723415,120.853801,192,338,9,37,80,27,,,0,,,20141101010000
230,"Lianshan district governement, Huludao",,40.775488,120.872292,193,272,3,37,36,22,,,0,,,20141101010000
231,Huludao,,40.712501,120.842107,254,470,9,38,80,27,,,0,,,20141101010000
1111,"Dongcheng District , Huludao , Huludao",,40.775362,120.871706,193,272,3,37,36,22,,,0,,,20141101010000
1112,"huagong street, Huludao , Huludao",,40.758901,120.842935,191,232,4,32,55,15,,,0,,,20141101010000
232,Anshan,,41.110466,123.000147,630,779,3,51,35,45,7,4,1017,81,2,20141101010000
233,"Qianshan Park, Anshan",,41.033486,123.143897,588,824,3,41,11,25,8,4,1017,76,2,20141101010000
234,"Tiexi, Anshan",,41.121636,122.97506,566,777,2,32,30,33,8,4,1017,76,2,20141101010000
235,"Taiping Station, Anshan",,41.153322,123.052433,566,671,3,33,58,40,8,4,1017,76,2,20141101010000
236,"Central Station, Anshan",,41.106731,123.002736,609,685,3,49,52,41,8,4,1017,76,2,20141101010000
237,"Shengou Temple, Anshan",,41.137157,123.031901,606,891,3,58,44,38,7,4,1017,81,2,20141101010000
1113,"Qianshan , Anshan , Anshan",,41.014521,123.122538,588,824,3,41,11,27,7,4,1017,81,2,20141101010000
1114,"Tiexi Sandao jie, Anshan",,41.103264,122.978613,566,777,2,32,30,34,7,4,1017,81,2,20141101010000
1115,"Taiyang, Anshan",,41.094946,123.019037,614,688,4,51,57,41,8,4,1017,76,2,20141101010000
238,Fushun,,41.883028,123.962984,557,775,1,64,57,60,8,4,1017,76,3,20141101010000
239,"Shenfu new town, Fushun",,41.804638,123.631684,580,676,12,43,37,17,7,4,1017,81,2,20141101010000
240,"Reservoir, Fushun",,41.8464,123.802857,580,756,2,57,32,60,8,4,1017,76,3,20141101010000
241,"Train Station, Fushun",,41.89726,124.017604,646,734,3,44,57,32,8,4,1017,76,3,20141101010000
242,"Dongzhou, Fushun",,41.855578,124.044738,97,869,4,53,59,28,8,4,1017,76,3,20141101010000
243,"Xinhua, Fushun",,41.888598,123.932932,613,739,3,67,57,35,8,4,1017,76,3,20141101010000
244,"Wanghua, Fushun",,41.888825,123.093723,517,638,22,57,70,30,8,4,1017,76,3,20141101010000
245,Benxi,,41.296267,123.772371,674,888,3,84,48,62,7,4,1017,81,2,20141101010000
246,"Weining, Benxi",,41.349663,123.826071,533,679,31,54,3,25,8,4,1017,76,2,20141101010000
247,"Occupational disease hospital, Benxi",,41.305432,123.74645,545,594,2,39,16,56,8,4,1017,76,2,20141101010000
248,"Dongming, Benxi",,41.292369,123.765058,712,-,2,60,59,56,7,4,1017,81,2,20141101010000
249,"Caitun, Benxi",,41.301591,123.746039,674,888,3,84,18,62,8,4,1017,76,2,20141101010000
250,"Xihu, Benxi",,41.331332,123.773537,666,641,3,59,48,47,8,4,1017,76,2,20141101010000
251,"Dayu, Benxi",,41.308091,123.818442,617,526,2,67,36,43,8,4,1017,76,2,20141101010000
1116,"Xinlitun , Benxi , Benxi",,41.264104,123.811523,635,648,2,66,48,57,8,4,1017,76,2,20141101010000
252,Jinzhou,,41.097169,121.132647,401,340,4,43,85,28,8,4,1019,67,1,20141101010000
253,"Beihu Park, Jinzhou",,41.141447,121.137339,215,168,2,38,45,23,8,4,1019,67,1,20141101010000
254,"Monitoring station, Jinzhou",,41.113441,121.140911,346,310,3,44,76,18,8,4,1019,67,1,20141101010000
255,"Nanshan, Jinzhou",,41.570689,122.046753,230,163,2,28,32,28,8,4,1019,67,1,20141101010000
1118,"BDA, Jinzhou",,40.853915,121.061756,253,168,2,41,85,21,8,4,1019,67,1,20141101010000
1119,"tianan street, Jinzhou , Jinzhou",,41.124468,121.126119,356,340,3,43,62,19,8,4,1019,67,1,20141101010000
1120,"baigu street, Jinzhou, Jinzhou",,41.12214,121.21027,401,288,4,35,19,27,8,4,1019,67,1,20141101010000
1121,Chaoyang,,41.576022,120.456053,422,445,5,42,32,46,-,-,0,-,-,20141101010000
472,"Fukang road, Tianjin",,39.098136,117.157621,223,99,6,32,6,24,13,8,1020,72,4,20141101010000
1122,"Agricultural Area, Chaoyang",,43.93968,125.247371,459,242,5,13,10,23,6,2,1019,74,2,20141101010000
1123,Tieling,,42.225197,123.732174,424,398,28,31,26,21,-,-,0,-,-,20141101010000
260,"Waterpark, Tieling",,42.297031,123.880748,422,605,5,25,26,21,8,4,1017,76,2,20141101010000
1124,"Huigong Street West , Tieling , Tieling",,42.311115,123.845614,424,292,10,21,12,17,8,4,1017,76,2,20141101010000
1125,Liaoyang,,41.269312,123.24268,285,419,3,39,59,26,-,-,0,-,-,20141101010000
1126,"Riverside Road , Liaoyang , Liaoyang",,41.176884,123.419859,447,235,1,29,27,26,8,4,1017,76,2,20141101010000
1127,Fuxin,,42.02373,121.675733,238,152,7,31,38,19,-,-,0,-,-,20141101010000
266,"Agricultural Area, Fuxin",,42.071291,121.696445,195,104,4,17,24,6,11,-1,0,41,5,20141101010000
267,"Industrial Area, Fuxin",,42.041052,121.715554,390,357,4,36,23,20,10,0,0,50,4,20141101010000
1128,"Yulong Metro , Fuxin , Fuxin",,42.035091,121.666531,187,175,2,28,22,25,10,0,0,50,4,20141101010000
1129,"Dongyuan , Fuxin , Fuxin",,42.029119,121.681553,242,338,7,38,38,17,10,0,0,50,4,20141101010000
268,"City Monitoring Station, Jinan",,36.662614,117.054645,172,102,1,28,26,9,13,12,1020,98,1,20141101010000
269,"Shandong Institute of Economics, Jinan",,36.63819,117.074975,-,-,-,-,-,-,-,-,0,-,-,20141101010000
270,"Quancheng Plaza, Jinan",,36.661711,117.027043,163,85,5,20,18,10,12,11,1019,97,2,20141101010000
271,"Kegansuo, Jinan",,36.611582,116.99384,163,111,2,34,13,10,13,12,1020,98,1,20141101010000
272,"Agriculture Science Institute, Jinan",,36.663115,116.95063,167,101,10,28,9,8,13,12,1020,98,1,20141101010000
273,"Lanxiang technical school, Jinan",,36.700421,116.95342,163,88,2,16,18,9,13,12,1020,98,1,20141101010000
274,"Chemical factory, Jinan",,36.687463,116.994406,165,77,1,28,16,8,13,12,1020,98,1,20141101010000
275,"Provincial Seed Warehouse, Jinan",,36.685706,117.066348,157,77,2,22,16,8,13,12,1020,98,1,20141101010000
276,"Shandong Architecture University, Jinan",,36.681732,117.191868,164,107,6,17,16,14,13,12,1020,98,1,20141101010000
277,"Baosheng cable company, Jinan",,36.724638,117.130855,161,96,1,23,12,7,13,12,1020,98,1,20141101010000
278,"Paomaling, Jinan",,36.47869,117.219027,53,17,28,6,19,10,13,12,1020,98,1,20141101010000
279,"Changqing District Communist Party School, Jinan",,36.548797,116.770859,160,111,5,24,14,9,13,12,1020,98,1,20141101010000
280,"BDA, Jinan",,36.685835,117.130851,158,83,15,26,13,12,13,12,1020,98,1,20141101010000
281,Jinan,,36.651426,117.126625,172,102,1,28,26,9,13,12,1020,98,1,20141101010000
282,"Shinan district No. 1, Qingdao",,36.065534,120.40839,151,78,10,27,9,7,15,11,1018,77,4,20141101010000
283,"Shibei district No. 1, Qingdao",,36.069919,120.341264,151,53,10,26,14,11,15,11,1018,77,4,20141101010000
284,"Shibei district No. 2, Qingdao",,36.104146,120.36637,137,69,12,23,10,9,15,11,1018,77,4,20141101010000
285,"Huangdao District No. 1, Qingdao",,35.958935,120.191041,155,91,15,30,24,7,15,11,1018,77,4,20141101010000
286,"Huangdao District No. 2, Qingdao",,35.970487,120.160339,160,55,21,11,10,4,15,11,1018,77,4,20141101010000
287,"Laoshan District No. 1, Qingdao",,36.085881,120.451839,155,50,11,24,14,6,15,11,1018,77,4,20141101010000
288,"Laoshan District No. 2, Qingdao",,36.091075,120.490388,147,75,20,11,15,4,15,11,1018,77,4,20141101010000
289,"Licang District No. 1, Qingdao",,36.184872,120.38533,142,74,10,20,6,11,15,11,1018,77,4,20141101010000
290,"Licang District No. 2, Qingdao",,36.154369,120.432287,137,58,13,19,8,8,15,11,1018,77,4,20141101010000
291,"Chengyang District No. 1, Qingdao",,36.308502,120.40008,159,3,15,21,16,5,15,11,1018,77,4,20141101010000
292,"Chengyang District No. 2, Qingdao",,36.308429,120.465806,155,20,16,12,14,7,15,11,1018,77,4,20141101010000
293,Qingdao,,36.067358,120.387773,151,78,10,27,9,7,15,11,1018,77,4,20141101010000
294,"Zichuan Meteo. Stations, Zibo",,36.637916,117.960222,-,-,-,-,-,-,-,-,0,-,-,20141101010000
295,"Dongfeng Chemical factory, Zibo",,36.838576,118.050785,151,81,2,32,36,14,15,11,0,75,2,20141101010000
296,"Boshan shuangshan, Zibo",,36.497278,117.853581,184,125,1,33,67,27,15,11,0,75,2,20141101010000
297,"Linzi Putian Park, Zibo",,36.820171,118.315022,76,53,5,29,35,11,15,11,0,75,2,20141101010000
298,"Qilu Petrochemical, Zibo",,36.765907,118.254967,154,64,3,27,30,10,15,11,0,75,2,20141101010000
299,"Zhoucun sanjin Group, Zibo",,36.8044,117.85694,144,80,7,26,44,15,15,11,0,75,2,20141101010000
300,"Vocational College, Zibo",,36.825208,117.926305,157,88,1,22,27,16,15,11,0,75,2,20141101010000
301,"BDA, Zibo",,36.905214,118.021824,107,74,2,16,16,8,15,11,0,75,2,20141101010000
302,Zibo,,36.813618,118.060948,184,125,2,38,110,27,15,11,0,75,2,20141101010000
303,"Shizhong District Government, Zaozhuang",,34.850397,117.569545,114,62,13,17,47,11,15,14,1019,89,0,20141101010000
304,"Sewage treatment plant, Zaozhuang",,34.818951,117.595345,114,43,8,18,22,14,15,14,1019,89,0,20141101010000
305,"Xuecheng EPA, Zaozhuang",,34.790214,117.272455,201,127,4,24,60,9,15,14,1019,89,0,20141101010000
306,"Yicheng District government, Zaozhuang",,34.772806,117.57647,99,60,8,24,14,6,15,14,1019,89,0,20141101010000
307,"Taierzhuang EPA, Zaozhuang",,34.579462,117.741067,144,73,6,25,17,9,15,14,1019,89,0,20141101010000
308,"Shanting EPA, Zaozhuang",,35.070373,117.457691,164,97,6,22,16,13,15,14,1019,89,0,20141101010000
309,"City EPA, Zaozhuang",,34.809466,117.320608,185,118,3,22,52,7,15,14,1019,89,0,20141101010000
310,"High-tech zone, Zaozhuang",,34.821779,117.363495,171,97,8,18,61,10,15,14,1019,89,0,20141101010000
311,Zaozhuang,,34.809693,117.329634,114,62,13,17,47,11,15,14,1019,89,0,20141101010000
312,"City EPA, Dongying",,37.432052,118.672871,161,95,12,23,22,15,16,11,0,74,4,20141101010000
313,"Vocational College, Dongying",,37.438653,118.630567,161,101,11,22,22,13,16,11,0,74,4,20141101010000
314,"Xianhe Oil Production Plant, Dongying",,37.442419,118.510222,159,87,11,21,11,15,16,11,0,74,4,20141101010000
315,"Gengjin village, Dongying",,37.445072,118.55839,157,90,10,21,14,12,16,11,0,74,4,20141101010000
316,"City environmental company, Dongying",,37.466599,118.508012,158,84,10,26,11,10,16,11,0,74,4,20141101010000
317,"Hekou  district, Dongying",,37.883786,118.522171,195,136,18,21,7,8,16,11,0,74,4,20141101010000
318,"BDA, Dongying",,37.435162,118.701827,166,95,17,23,17,16,16,11,0,74,4,20141101010000
319,Dongying,,37.435429,118.680434,161,95,12,23,22,15,16,11,0,74,4,20141101010000
320,"Bearing Factory, Yantai",,37.544126,121.376956,237,91,22,24,11,10,,,0,,,20141101010000
321,"Xijiao Chemical Station, Yantai",,37.547148,121.323695,172,69,21,26,46,10,,,0,,,20141101010000
322,"Fushan Monitoring Stations, Yantai",,37.472245,121.260116,153,88,23,6,10,7,,,0,,,20141101010000
323,"Mouping EPA, Yantai",,37.376681,121.586509,159,87,16,25,4,11,,,0,,,20141101010000
324,"Laishan EPA, Yantai",,37.478422,121.44829,177,88,31,28,9,5,,,0,,,20141101010000
325,"Laishan Shengquan Industrial Park, Yantai",,37.4271,121.408386,170,82,17,23,16,2,,,0,,,20141101010000
326,"China Agricultural University, Yantai",,37.423568,121.511838,162,76,22,25,10,6,,,0,,,20141101010000
327,"BDA EPA, Yantai",,37.560827,121.257954,174,88,21,14,5,7,,,0,,,20141101010000
329,"Dajijia, Yantai",,37.673849,121.071465,157,72,28,6,5,6,,,0,,,20141101010000
330,Yantai,,37.464793,121.453142,237,91,22,24,11,10,,,0,,,20141101010000
331,"BDA, Weifang",,36.720022,119.054064,160,75,12,16,13,4,,,0,,,20141101010000
332,"Business School, Weifang",,36.682442,119.105909,151,66,15,14,14,5,,,0,,,20141101010000
333,"Hanting District, Weifang",,36.773484,119.199705,175,98,17,13,13,4,,,0,,,20141101010000
334,"Gongda Company, Weifang",,36.657635,119.167266,159,76,19,23,10,5,,,0,,,20141101010000
335,"City EPA, Weifang",,36.701272,119.16838,163,85,19,18,10,4,,,0,,,20141101010000
336,"City Arbitration Committee, Weifang",,36.702422,119.145927,164,76,25,16,14,7,,,0,,,20141101010000
337,"Xinhui Group, Weifang",,36.641581,119.11679,155,74,17,19,20,6,,,0,,,20141101010000
338,"Jincheng Middle School, Weifang",,36.773611,119.115539,163,83,23,11,9,5,,,0,,,20141101010000
339,Weifang,,36.707217,119.167638,164,85,14,17,16,8,,,0,,,20141101010000
340,"City Monitoring Station, Jining",,35.408443,116.623917,164,84,4,23,41,10,14,13,1020,90,1,20141101010000
1090,"Shengdi Hollidays Resort, Jining",,35.424746,116.699093,157,70,4,24,25,9,14,13,1020,90,1,20141101010000
341,"Sewage treatment plant, Jining",,35.364286,116.609177,162,70,4,23,30,11,14,13,1020,90,1,20141101010000
342,"Electrochemical Factory, Jining",,35.390473,116.552956,162,94,4,22,25,14,14,13,1020,90,1,20141101010000
343,"Rencheng BDA, Jining",,35.390484,116.662995,157,72,8,23,27,13,14,13,1020,90,1,20141101010000
344,"Agricultural School, Jining",,35.44235,116.601682,167,95,2,22,27,7,14,13,1020,90,1,20141101010000
345,"BDA Huojucheng, Jining",,35.436377,116.642953,162,81,4,20,44,10,14,13,1020,90,1,20141101010000
346,Jining,,35.414473,116.59239,164,84,8,23,41,10,14,13,1020,90,1,20141101010000
347,"Taishan monitoring station, Taian",,36.194362,117.159648,170,101,1,28,20,16,5,5,0,98,2,20141101010000
348,"Shandong Electric Power School, Taian",,36.176071,117.12413,155,77,10,28,11,14,5,5,0,98,2,20141101010000
349,"Population Education school, Taian",,36.194417,117.104131,163,83,2,22,14,12,5,5,0,98,2,20141101010000
350,"Houfeng company, Taian",,36.204863,117.19015,162,93,2,26,9,17,5,5,0,98,2,20141101010000
351,"Nongda new campus, Taian",,36.170179,117.165191,163,114,3,38,31,20,5,5,0,98,2,20141101010000
352,"Transportation technical school, Taian",,36.202126,117.047068,132,63,2,20,9,15,5,5,0,98,2,20141101010000
353,"ICT Technology, Taian",,36.116621,117.107458,159,83,7,24,18,15,5,5,0,98,2,20141101010000
354,Taian,,36.200502,117.093682,170,101,1,28,20,16,5,5,0,98,2,20141101010000
355,"City Environmental Monitoring Station, Weihai",,37.513939,122.067058,175,89,31,16,5,6,16,11,0,76,5,20141101010000
356,"Woodworking Factory, Weihai",,37.325455,122.160777,163,71,33,13,6,4,16,11,0,76,5,20141101010000
357,"Lantian Hotel, Weihai",,37.514641,122.146276,172,81,34,11,7,8,16,11,0,76,5,20141101010000
1233,"City Mine station dormitory building , Wenchang",,19.61896,110.752145,,30,,8,1,,,,,,,20141101040000
358,"Zhang village government, Weihai",,37.485561,122.049436,169,69,28,9,5,8,16,11,0,76,5,20141101010000
359,"Gao District Bank, Weihai",,37.534919,122.056294,178,94,33,8,3,4,16,11,0,76,5,20141101010000
360,"Huxia technical school, Weihai",,37.427951,122.130811,168,80,34,11,3,4,16,11,0,76,5,20141101010000
361,Weihai,,37.5141,122.125477,175,89,31,16,5,6,16,11,0,76,5,20141101010000
362,"City governement square, Rizhao",,35.4075,119.526008,151,57,16,5,6,5,15,14,1019,93,1,20141101010000
363,"Port Authority, Rizhao",,35.381297,119.55396,151,57,16,11,5,6,15,14,1019,93,1,20141101010000
364,"City Monitoring Station, Rizhao",,35.388683,119.496405,157,66,12,15,5,5,15,14,1019,93,1,20141101010000
365,"Professor Garden, Rizhao",,35.462161,119.574193,152,76,20,9,7,5,15,14,1019,93,1,20141101010000
366,"Vocational and Technical College, Rizhao",,35.441939,119.538187,152,57,17,7,6,6,15,14,1019,93,1,20141101010000
367,"Lanshan EPA branch, Rizhao",,35.293405,119.345716,151,59,13,12,12,6,15,14,1019,93,1,20141101010000
368,"Jinma Industrial Park, Rizhao",,35.373339,119.514108,154,65,10,15,11,4,15,14,1019,93,1,20141101010000
369,Rizhao,,35.416089,119.532316,151,57,16,5,6,5,15,14,1019,93,1,20141101010000
370,"Vegetable oil factory, Laiwu",,36.205028,117.700917,164,69,3,28,57,9,14,11,1020,83,1,20141101010000
371,"Nursing home, Laiwu",,36.266067,117.652769,157,87,11,19,38,19,14,11,1020,83,1,20141101010000
372,"Xinyi middle school, Laiwu",,36.245086,117.739025,151,61,3,29,60,14,14,11,1020,83,1,20141101010000
373,"Risheng International School, Laiwu",,36.208125,117.730959,162,83,2,17,57,12,14,11,1020,83,1,20141101010000
374,"Gangcheng EPA, Laiwu",,36.066836,117.871823,154,67,2,28,66,9,14,11,1020,83,1,20141101010000
375,"City EPA, Laiwu",,36.228913,117.694797,149,72,2,3,52,13,14,11,1020,83,1,20141101010000
376,Laiwu,,36.213688,117.682612,164,69,3,28,57,9,-,-,0,-,-,20141101010000
377,"Lunan Pharmaceutical Factory, Linyi",,35.061671,118.299527,137,69,3,26,13,7,16,11,0,73,2,20141101010000
378,"Yihe compound, Linyi",,35.056752,118.34739,112,58,5,24,12,12,16,11,0,73,2,20141101010000
379,"Linyi University, Linyi",,35.114777,118.293414,152,61,4,18,24,13,16,11,0,73,2,20141101010000
380,City EPA,Nanfang,35.104871,118.353518,95,52,3,19,12,13,16,11,0,73,2,20141101010000
381,"Xinguang woolen factory, Linyi",,34.981004,118.282,109,57,3,20,14,14,16,11,0,73,2,20141101010000
382,"Hongfu Baijiu Factory, Linyi",,34.998788,118.257275,142,71,2,22,19,15,16,11,0,73,2,20141101010000
384,"Hedong insurance company, Linyi",,35.089354,118.40812,97,53,6,25,12,9,16,11,0,73,2,20141101010000
385,"Jianghua vehicule center, Linyi",,35.010082,118.435749,127,64,2,17,17,13,16,11,0,73,2,20141101010000
386,Linyi,,35.10428,118.362202,137,69,3,26,13,7,16,11,0,73,2,20141101010000
387,"Heima group, Dezhou",,37.466063,116.314134,177,104,4,21,6,18,12,12,1020,97,1,20141101010000
388,"Monitoring station, Dezhou",,37.433107,116.377312,200,162,9,28,12,19,12,12,1020,97,1,20141101010000
389,"Supervision Station, Dezhou",,37.449689,116.324709,244,152,11,20,7,17,12,12,1020,97,1,20141101010000
390,"Huayu technical school, Dezhou",,37.462809,116.357559,192,113,5,24,12,15,12,12,1020,97,1,20141101010000
391,"Shuangyi group, Dezhou",,37.478848,116.316362,228,125,1,28,6,17,12,12,1020,97,1,20141101010000
392,Dezhou,,37.434959,116.363366,177,104,4,21,6,18,12,12,1020,97,1,20141101010000
393,"Dongchang District Government, Liaocheng",,36.444473,115.971733,183,93,3,29,12,15,12,11,1021,86,1,20141101010000
394,"Light Machinery Factory No. 2, Liaocheng",,36.456788,116.002383,202,159,3,29,12,34,12,11,1021,86,1,20141101010000
395,"City committee communist party school, Liaocheng",,36.479537,115.989288,230,195,6,36,7,8,12,11,1021,86,1,20141101010000
396,"Customs, Liaocheng",,36.431933,115.956974,199,121,6,34,10,15,12,11,1021,86,1,20141101010000
397,"Hongshun Garden, Liaocheng",,36.471124,115.960319,185,125,1,36,10,11,12,11,1021,86,1,20141101020000
398,"BDA, Liaocheng",,36.459407,116.043621,193,128,4,22,40,17,12,11,1021,86,1,20141101020000
399,Liaocheng,,36.456792,115.991051,183,93,3,29,12,15,12,11,1021,86,1,20141101020000
400,"City EPA, Binzhou",,37.38024,118.026895,153,41,8,11,6,14,12,12,1020,100,1,20141101020000
401,"Beizhong new school, Binzhou",,37.38374,117.988996,134,66,6,11,6,14,12,12,1020,100,1,20141101020000
402,"No.2 water factory, Binzhou",,37.36155,118.002648,154,68,5,14,7,14,12,12,1020,100,1,20141101020000
403,"Keling Chemical factory, Binzhou",,37.396138,117.943609,139,58,4,13,19,13,12,12,1020,100,1,20141101020000
404,"Yinhe logistics company, Binzhou",,37.356122,117.943326,152,64,7,7,16,9,12,12,1020,100,1,20141101020000
405,"Bilin compond, Binzhou",,37.36815,117.978964,117,45,8,12,22,11,12,12,1020,95,1,20141101020000
406,Binzhou,,37.382639,117.976606,153,41,8,11,6,14,12,12,1020,100,1,20141101020000
407,"Bureau of Meteorology, Heze",,35.248625,115.428775,208,130,6,30,17,13,17,8,0,59,3,20141101020000
408,"Sewage treatment plant, Heze",,35.222517,115.531511,192,138,6,32,16,17,17,8,0,59,3,20141101020000
409,"Municipal CPPCC, Heze",,35.237125,115.480591,193,116,7,28,22,16,17,8,0,59,3,20141101020000
410,"Huarun Pharmaceutical Company, Heze",,35.261463,115.524873,197,145,8,24,21,15,17,8,0,59,3,20141101020000
411,"Heze University, Heze",,35.269706,115.460934,196,134,6,27,20,13,17,8,0,59,3,20141101020000
412,Heze,,35.233354,115.486503,208,130,6,30,17,13,17,8,0,59,3,20141101020000
413,"Shiji Park, Shijiazhuang",,38.03155,114.547873,162,88,1,31,33,24,13,7,1021,67,2,20141101020000
414,"Xinan College, Shijiazhuang",,38.012764,114.473163,144,78,2,26,21,17,13,7,1021,67,2,20141101020000
415,"Chemical College, Shijiazhuang",,38.055503,114.569816,165,124,10,30,16,22,13,7,1021,67,2,20141101020000
1246,Xinji,,37.943841,115.224111,307,198,2,32,38,22,16,7,0,53,2,20141101040000
416,"Worker hospital, Shijiazhuang",,38.051784,114.461209,144,97,1,34,45,26,13,7,1021,67,2,20141101020000
417,"Northwest Water Company, Shijiazhuang",,38.140638,114.508038,177,109,1,34,26,23,13,7,1021,67,2,20141101020000
418,"High-tech zone, Shijiazhuang",,38.040482,114.610775,159,94,1,33,36,24,13,7,1021,67,2,20141101020000
419,"Fenglong Montain, Shijiazhuang",,37.910829,114.360264,87,880,17,8,24,4,11,8,1021,82,3,20141101020000
1130,"Zhengding Unicom, Shijiazhuang",,38.159458,114.59879,210,162,2,30,23,25,13,7,1021,67,2,20141101020000
1131,"Luancheng Communications, Shijiazhuang",,37.906534,114.638785,247,164,2,43,33,23,13,7,1021,67,2,20141101020000
1132,"Gaocheng Experimental School, Shijiazhuang",,38.039518,114.867812,237,187,11,26,24,28,13,7,1021,67,2,20141101020000
1133,"Wuji EPA, Shijiazhuang",,38.17862,114.997012,320,186,2,32,40,27,13,7,1021,67,2,20141101020000
1134,"Shenze Power Supply Bureau, Shijiazhuang",,38.197674,115.219126,354,416,1,48,41,20,13,7,1021,67,2,20141101020000
1135,"Zhaoxian EPA, Shijiazhuang",,37.77171,114.775957,361,387,1,58,53,24,13,7,1021,67,2,20141101020000
1136,"Gaoyi County City Hall, Shijiazhuang",,37.623535,114.612729,336,402,1,44,60,26,13,7,1021,67,2,20141101020000
1137,"Zanhuang County City Hall, Shijiazhuang",,37.672898,114.398269,175,95,5,15,16,12,13,7,1021,67,2,20141101020000
1138,"Jingxing Bureau of Meteorology, Shijiazhuang",,38.038788,114.158406,154,82,1,29,37,20,13,7,1021,67,2,20141101020000
1139,"Pingshan Ye River, Shijiazhuang",,38.266657,114.210275,220,142,1,28,21,31,13,7,1021,67,2,20141101020000
420,Shijiazhuang,,38.042926,114.520834,137,90,1,27,32,18,13,7,1021,67,2,20141101020000
421,"No. 12 middle school, Tangshan",,39.659306,118.190271,,,,,,,-,-,0,-,-,20141101020000
422,"Ceramics Company, Tangshan",,39.669255,118.225185,340,187,3,42,10,18,13,8,1020,72,4,20141101020000
423,"Commodities Bureau, Tangshan",,39.642301,118.191265,361,248,4,36,12,20,13,8,1020,72,4,20141101020000
424,"Leidazhanzi Station, Tangshan",,39.644375,118.150383,330,220,3,34,6,20,13,8,1020,72,4,20141101020000
425,"Supply and marketing cooperatives, Tangshan",,39.632334,118.17232,311,209,6,43,10,23,13,8,1020,72,4,20141101020000
1140,"Guye District City Hall, Tangshan",,39.741379,118.460246,291,276,2,34,25,24,13,8,1020,72,4,20141101020000
1141,"Kaiping Stations, Tangshan",,39.675246,118.275149,324,440,2,41,20,14,13,8,1020,72,4,20141101020000
1142,"Fengnan District City Hall, Tangshan",,39.5834,118.097454,305,200,2,38,7,21,13,8,1020,72,4,20141101020000
1143,"Fengrun City Hall, Tangshan",,39.840355,118.175338,285,238,4,23,47,22,13,8,1020,72,4,20141101020000
1144,"Qianxi EPA, Tangshan",,40.153339,118.317265,281,193,5,45,11,31,13,8,1020,72,4,20141101020000
1145,"Caofeidian Xinli  Primary School, Tangshan",,39.291232,118.462182,328,189,2,39,9,20,13,8,1020,72,4,20141101020000
1146,"Zunhua EPA, Tangshan",,40.206249,117.997315,232,148,3,28,8,27,13,8,1020,72,4,20141101020000
1147,"Qianan No.1 middle school, Tangshan",,40.004248,118.717055,218,141,16,30,17,27,13,8,1020,72,4,20141101020000
1266,"Luannan County , Tangshan",,39.511132,118.686928,320,193,17,43,17,26,13,8,1020,72,4,20141101020000
1267,"Yutian County , Tangshan",,39.908249,117.751417,263,178,2,38,9,23,13,8,1020,72,4,20141101020000
426,Tangshan,,39.632175,118.186472,361,248,4,36,12,20,-,-,0,-,-,20141101020000
427,"City Monitoring Station, Qinhuangdao",,39.958109,119.607773,214,168,3,49,36,42,,,0,,,20141101020000
428,"Beidaihe, Qinhuangdao",,39.829209,119.53194,239,131,5,34,31,51,,,0,,,20141101020000
429,"Shanhai Pass, Qinhuangdao",,40.019298,119.767898,260,200,2,51,44,35,,,0,,,20141101020000
430,"Contruction Plazz, Qinhuangdao",,39.943187,119.542912,204,174,6,37,21,30,,,0,,,20141101020000
431,"City government, Qinhuangdao",,39.93711,119.612769,288,182,3,37,51,35,,,0,,,20141101020000
1148,"Qinglong EPA, Qinhuangdao",,40.419223,118.958002,199,133,5,20,24,24,,,0,,,20141101020000
1149,"Changli EPA, Qinhuangdao",,39.714369,119.173237,156,73,9,14,20,36,,,0,,,20141101020000
1268,"Lulong County Bureau of Meteorology , Qinhuangdao",,39.901091,118.904857,341,195,4,1,28,31,,,0,,,20141101020000
432,Qinhuangdao,,39.936485,119.606263,288,182,3,37,51,35,,,0,,,20141101020000
433,"CongTai Park, Handan",,36.620197,114.501891,224,187,1,27,62,34,,,0,,,20141101020000
434,"City EPA, Handan",,36.618145,114.518822,226,176,4,53,3,30,,,0,,,20141101020000
435,"East Sewage Factory, Handan",,36.616064,114.548714,272,223,1,41,22,19,,,0,,,20141101020000
436,"Mine Hospital, Handan",,36.578149,114.509854,285,197,1,32,27,23,,,0,,,20141101020000
1150,"Fengfeng mine Inland Revenue Department, Handan",,36.423085,114.245994,294,263,2,27,54,20,,,0,,,20141101020000
1151,"Shexian EPA, Handan",,36.589084,113.692341,178,87,5,18,17,24,,,0,,,20141101020000
1152,"Ci County Vocational Education Center, Handan",,36.380247,114.390119,235,167,2,38,62,24,,,0,,,20141101020000
1153,"Yongnian government guesthouse, Handan",,36.783297,114.502905,230,177,1,44,64,19,,,0,,,20141101020000
1154,"Wuan BDA, Handan",,36.686223,114.269009,310,262,2,34,50,38,,,0,,,20141101020000
1085,Handan,,36.625683,114.544812,272,223,1,41,22,19,,,0,,,20141101020000
437,"Road and Bridge Corporation, Xingtai",,37.096415,114.538799,241,160,2,36,32,11,12,10,1021,80,0,20141101020000
438,"Dahuo fontain, Xingtai",,37.097563,114.488001,211,134,31,24,11,8,12,10,1021,80,0,20141101020000
439,"Xingtai Normal College, Xingtai",,37.053404,114.531819,254,230,4,41,34,17,12,10,1021,80,0,20141101020000
440,"Environment protection office, Xingtai",,37.06253,114.490985,226,154,4,30,17,15,12,10,1021,80,0,20141101020000
1155,"Cultural centers within the mound, Xingtai",,37.293569,114.524873,245,176,3,20,6,37,12,10,1021,80,0,20141101020000
383,Xingtai,,37.071066,114.510749,226,154,4,30,17,15,12,10,1021,80,0,20141101020000
441,"City Monitoring Station, Baoding",,38.871737,115.527103,378,375,16,49,27,24,8,7,1020,96,0,20141101020000
442,"Surface water Company, Baoding",,38.842891,115.467326,376,349,2,105,22,19,8,7,1020,96,0,20141101020000
443,"Huadian II, Baoding",,38.896748,115.528102,346,289,5,23,31,30,8,7,1020,96,0,20141101020000
444,"Reception Center, Baoding",,38.911905,115.477301,289,333,3,40,22,15,8,7,1020,96,0,20141101020000
445,"Film Factory, Baoding",,38.876949,115.448383,266,360,3,36,9,21,8,7,1020,96,0,20141101020000
446,"Natatorium, Baoding",,38.863815,115.499212,250,438,2,46,4,28,8,7,1020,96,0,20141101020000
1156,"Qingyuan City Hall, Baoding",,38.771758,115.502189,370,296,2,35,5,20,8,7,1020,96,0,20141101020000
1157,"Xushui EPA, Baoding",,39.025781,115.668023,210,101,1,23,38,20,8,7,1020,96,0,20141101020000
1158,"Zhouzhou Monitoring Stations, Baoding",,39.493241,116.040187,201,137,2,19,8,19,8,7,1020,96,0,20141101020000
1159,"Gaobeidian EPA, Baoding",,39.3329,115.885891,221,157,2,29,35,19,8,7,1020,96,0,20141101020000
447,Baoding,,38.874791,115.471124,266,360,3,36,9,21,8,7,1020,96,0,20141101020000
448,"Century Compound, Zhangjiakou",,40.770279,114.909106,21,18,11,12,4,1,3,-3,1024,54,0,20141101020000
449,"North Pumping Station, Zhangjiakou",,40.874362,114.910119,-,-,-,-,-,-,-,-,0,-,-,20141101020000
450,"Hardware Warehouse, Zhangjiakou",,40.81232,114.887119,9,25,33,10,28,15,3,-3,1024,54,0,20141101020000
451,"Tanji Chang, Zhangjiakou",,40.796301,114.89811,30,11,16,12,16,2,3,-3,1024,54,0,20141101020000
1160,"Xiahuayuan EPA, Zhangjiakou",,40.509345,115.302442,80,46,3,15,16,6,3,-3,1024,54,0,20141101020000
1161,"Huaian EPA, Zhangjiakou",,40.68157,114.398646,61,21,5,1,9,10,3,-3,1024,54,0,20141101020000
1162,"Huailai Fuqian Primary School, Zhangjiakou",,40.422204,115.530285,61,48,8,9,4,4,3,-3,1024,54,0,20141101020000
1269,"Zhangbei EPA , Zhangjiakou",,41.166775,114.732369,72,37,22,6,8,3,3,-3,1024,54,0,20141101020000
1270,"Kangbao County Environmental Protection Agency , Zhangjiakou",,41.837866,114.591246,68,28,29,3,5,2,3,-3,1024,54,0,20141101020000
1271,"Guyuan County welfare , Zhangjiakou",,41.669984,115.687401,82,31,18,5,6,4,3,-3,1024,54,0,20141101020000
1272,"Shangyi County Environmental Protection Bureau , Zhangjiakou",,41.086638,113.984688,72,45,28,9,11,6,3,-3,1024,54,0,20141101020000
1273,"Yuxian Secondary School , Zhangjiakou",,39.84699,114.601986,119,53,7,17,20,12,3,-3,1024,54,0,20141101020000
1274,"Yang County Vocational Education Center , Zhangjiakou",,40.106343,114.134732,134,63,16,9,8,13,3,-3,1024,54,0,20141101020000
1275,"Wan county Environmental Protection Agency , Zhangjiakou",,40.770459,114.75033,63,25,24,12,4,3,3,-3,1024,54,0,20141101020000
473,"Nankou road, Tianjin",,39.174022,117.199688,204,140,3,30,11,22,14,7,1020,63,4,20141101020000
1276,"Zhuolu County Environmental Protection Agency , Zhangjiakou",,40.374273,115.221393,89,38,16,1,12,5,3,-3,1024,54,0,20141101020000
452,Zhangjiakou,,40.825744,114.893659,50,13,15,5,15,2,3,-3,1024,54,0,20141101020000
453,"Railway, Chengde",,40.917557,117.972331,78,44,13,18,8,8,5,0,1021,63,1,20141101020000
454,"Cultural Center, Chengde",,40.974625,117.824437,161,58,5,22,9,9,5,0,1021,63,1,20141101020000
455,"Bank of China, Chengde",,40.985582,117.958304,122,58,1,18,12,10,5,0,1021,63,1,20141101020000
456,"BDA, Chengde",,40.937567,117.969325,85,63,4,13,5,10,5,0,1021,63,1,20141101020000
457,"Ligong, Chengde",,41.012579,117.94428,97,42,15,19,8,5,5,0,1021,63,1,20141101020000
1163,"Chengde County EPA, Chengde",,40.776643,118.17646,170,308,1,25,9,15,5,0,1021,63,1,20141101020000
1164,"Xinglong County City Hall, Chengde",,40.424301,117.513488,164,85,8,20,9,20,5,0,1021,63,1,20141101020000
1165,"Luanping EPA, Chengde",,40.950792,117.350715,107,56,3,27,9,11,5,0,1021,63,1,20141101020000
1166,"Fengning County City Hall, Chengde",,41.216739,116.658037,119,62,14,17,8,6,5,0,1021,63,1,20141101020000
1277,"Longhua EPA , Chengde",,41.311956,117.739605,122,76,14,32,4,6,5,0,1021,63,1,20141101020000
458,Chengde,,40.955652,117.968737,85,63,4,13,5,10,5,0,1021,63,1,20141101020000
459,"Municipal EPB, Cangzhou",,38.323507,116.876746,292,382,6,31,3,21,13,8,1020,72,4,20141101020000
460,"Cangxian Urban Construction Bureau, Cangzhou",,38.299495,116.890734,350,174,1,21,10,16,13,8,1020,72,4,20141101020000
461,"TV Broadcast Station, Cangzhou",,38.325525,116.863761,337,286,4,10,5,22,13,8,1020,72,4,20141101020000
1167,"Qing County City Hall, Cangzhou",,38.589643,116.815876,261,125,1,18,8,26,13,8,1020,72,4,20141101020000
1168,"Poyoushi City Hall, Cangzhou",,38.089516,116.590575,342,324,4,16,1,21,13,8,1020,72,4,20141101020000
1169,"Huanghua Finance Bureau Training Center, Cangzhou",,38.377793,117.343356,260,160,-,24,13,15,13,8,1020,72,4,20141101020000
462,Cangzhou,,38.305035,116.844625,337,286,4,10,5,22,13,8,1020,72,4,20141101020000
463,"Environmental Monitoring Supervision Center, Langfang",,39.558157,116.720995,187,136,10,31,6,15,13,8,1020,72,4,20141101020000
464,"TCM Medical Material Company, Langfang",,39.519096,116.689914,183,112,4,29,6,18,13,8,1020,72,4,20141101020000
465,"BDA, Langfang",,39.576175,116.779041,199,114,2,22,7,21,13,8,1020,72,4,20141101020000
466,"North China Institute of Aerospace, Langfang",,39.53517,116.743027,182,116,3,25,4,19,13,8,1020,72,4,20141101020000
1170,"Guan Party School, Langfang",,39.446185,116.311026,294,174,2,30,5,16,13,8,1020,72,4,20141101020000
1171,"Xianghe EPA, Langfang",,39.76725,117.015252,191,111,1,33,9,20,13,8,1020,72,4,20141101020000
1172,"Wenan County EPA, Langfang",,38.880927,116.47001,184,123,2,25,11,17,13,8,1020,72,4,20141101020000
1173,"Three Rivers Department of Transportation, Langfang",,39.989419,117.091528,198,146,2,24,8,22,13,8,1020,72,4,20141101020000
1278,"Yongqing EPA , Langfang",,39.329071,116.510917,258,149,3,19,6,14,13,8,1020,72,4,20141101020000
1279,"Dacheng EPA, Langfang",,38.712628,116.665751,278,263,4,37,12,23,13,8,1020,72,4,20141101020000
467,Langfang,,39.539148,116.689668,183,112,4,29,6,18,13,8,1020,72,4,20141101020000
468,"Hengshui City EPB, Hengshui",,37.739679,115.695929,307,197,2,34,27,17,14,8,0,63,2,20141101020000
469,"Environmental Monitoring Station, Hengshui",,37.738593,115.648837,306,191,6,37,8,15,14,8,0,63,2,20141101020000
470,"Electrical Machine North Factory, Hengshui",,37.758686,115.70094,293,235,2,20,19,17,14,8,0,63,2,20141101020000
1174,"Anping EPA, Hengshui",,38.238559,115.537988,429,359,3,38,26,20,14,8,0,63,2,20141101020000
1175,"Jizhou EPA, Hengshui",,37.548552,115.58679,314,266,2,29,18,17,14,8,0,63,2,20141101020000
1280,"Zaoqiang EPA, Hengshui",,37.520698,115.714936,346,269,20,29,8,13,14,8,0,63,2,20141101020000
1281,"Wuyi EPA, Hengshui",,37.801554,115.898697,288,199,2,19,12,14,14,8,0,63,2,20141101020000
1282,"Wuqiang EPA , Hengshui",,38.03557,115.959767,229,159,3,1,7,14,14,8,0,63,2,20141101020000
1283,"Raoyang EPA , Hengshui",,38.230652,115.741041,236,156,1,1,7,15,14,8,0,63,2,20141101020000
1284,"Gucheng County , Hengshui",,37.347569,115.966707,251,171,2,1,4,11,14,8,0,63,2,20141101020000
471,Hengshui,,37.739562,115.676066,293,235,2,20,19,17,14,8,0,63,2,20141101020000
1176,"Xinji City Hall, Xinji",,37.949711,115.230084,417,433,2,43,40,21,14,8,0,63,2,20141101020000
474,"Qinjian street, Tianjin",,39.166588,117.15104,211,110,9,26,6,23,14,7,1020,63,4,20141101020000
475,"Nanjing Road, Tianjin",,39.120958,117.195112,170,164,10,32,8,23,14,7,1020,63,4,20141101020000
476,"Dazhigu No.8 road, Tianjin",,39.111811,117.25147,175,128,9,32,9,25,14,7,1020,63,4,20141101020000
477,"Qianjin street, Tianjin",,39.09371,117.207981,153,160,9,26,10,21,14,7,1020,63,4,20141101020000
478,"Huaihe street, Tianjin",,39.227167,117.191293,225,135,1,37,6,19,14,7,1020,63,4,20141101020000
479,"Xiangshan street, Tianjin",,39.134752,117.275125,269,135,2,26,6,30,14,7,1020,63,4,20141101020000
480,"Yuejin Road, Tianjin",,39.088177,117.320884,173,138,4,35,9,23,14,7,1020,63,4,20141101020000
481,"Zhujiang street, Tianjin",,39.064463,117.231268,-,-,-,-,-,-,-,-,0,-,-,20141101020000
482,"No.4 street, Tianjin",,39.035228,117.713424,228,121,3,29,8,20,14,7,1020,63,4,20141101020000
483,"Yongming road, Tianjin",,38.840392,117.463805,268,159,12,28,9,30,14,7,1020,63,4,20141101020000
484,"Xinhua street, Tianjin",,39.138671,117.010083,204,104,2,17,5,20,13,8,1020,72,4,20141101020000
485,"Jingu Road, Tianjin",,38.985659,117.381254,179,89,3,35,13,28,13,8,1020,72,4,20141101020000
486,"Tanggu Yingkou street, Tianjin",,39.021768,117.656454,189,134,4,26,2,15,13,8,1020,72,4,20141101020000
487,"Hexi Yijing road, Tianjin",,39.248392,117.798043,270,117,16,27,7,20,13,8,1020,72,4,20141101020000
488,"Jianshe Road, Tianjin",,39.720075,117.310588,201,106,7,31,5,22,13,8,1020,72,4,20141101020000
489,"Quanzhou South road, Tianjin",,39.373857,117.050329,240,126,2,32,11,27,11,10,1019,94,3,20141101020000
490,"Donghuan road, Tianjin",,40.043144,117.451062,194,118,7,22,4,24,13,8,1020,72,4,20141101020000
491,"Tuanpowa, Tianjin",,38.920418,117.16299,279,129,3,25,2,13,14,7,1020,63,4,20141101020000
493,"Beiwei No.2 road, Tianjin",,38.943857,116.920624,194,105,2,35,7,26,13,8,1020,72,4,20141101020000
494,"Haitai fazhan No.2 road, Tianjin",,39.079608,117.096583,237,137,5,28,5,22,13,8,1020,72,4,20141101020000
495,"Hangtian road, Tianjin",,39.152244,117.381309,262,140,2,33,12,30,14,7,1020,63,4,20141101020000
496,"Hanbei road, Tianjin",,39.159768,117.770477,299,172,5,34,14,40,14,7,1020,63,4,20141101020000
497,"Baobai highway, Tianjin",,39.51757,117.349635,207,158,23,22,3,22,13,8,1020,72,4,20141101020000
498,Tianjin,,39.085164,117.207281,153,160,9,26,10,21,13,8,1020,72,4,20141101020000
499,"Wolong bridge, Hangzhou",,30.24371,120.132762,95,39,6,13,3,9,19,14,1018,73,2,20141101020000
500,"Hemu primary school, Hangzhou",,30.309669,120.124507,119,50,18,20,10,10,19,14,1018,73,2,20141101020000
501,"Zhejiang Agricultural University, Hangzhou",,30.265601,120.197583,144,57,8,23,16,20,19,14,1018,73,2,20141101020000
502,"Xiasha, Hangzhou",,30.303516,120.352618,152,53,4,25,7,9,19,14,1018,73,2,20141101020000
503,"Yunqi, Hangzhou",,30.178555,120.093142,85,40,3,10,2,10,19,14,1018,73,2,20141101020000
504,"Xixi, Hangzhou",,30.272425,120.068144,127,46,6,19,5,10,19,14,1018,73,2,20141101020000
505,"Chengxiang town, Hangzhou",,30.179493,120.274184,99,58,9,21,8,7,19,14,1018,73,2,20141101020000
506,"Qiandao lake, Hangzhou",,29.638139,119.031092,57,27,9,5,4,9,19,14,1018,73,2,20141101020000
507,"Linping town, Hangzhou",,30.415948,120.305059,139,59,7,22,13,11,19,14,1018,73,2,20141101020000
509,"No.2 Middle School, Hangzhou",,30.044303,119.956356,102,61,11,15,4,11,19,14,1018,73,3,20141101020000
510,"City Hall, Hangzhou",,30.234185,119.723503,104,64,21,12,5,11,19,14,1018,73,3,20141101020000
511,"No. 4 middle school, Hangzhou",,30.229428,119.699591,97,63,7,21,7,13,19,14,1018,73,3,20141101020000
512,Hangzhou,,30.271756,120.159765,139,56,8,23,6,12,19,14,1018,73,3,20141101020000
513,"City Station, Wenzhou",,28.009715,120.679129,117,59,3,21,9,11,24,20,0,79,2,20141101020000
514,"Ouhai, Wenzhou",,28.001846,120.641982,114,60,2,28,10,10,24,20,0,79,2,20141101020000
515,"Longwan, Wenzhou",,27.968122,120.768393,89,66,3,22,7,15,24,20,0,79,2,20141101020000
516,"Nanpu, Wenzhou",,27.981763,120.683685,132,65,2,18,10,9,24,20,0,79,2,20141101020000
517,Wenzhou,,27.990985,120.703425,132,65,2,18,10,9,24,20,0,79,2,20141101020000
518,"Monitoring station, Jiaxing",,30.75437,120.767373,142,56,15,22,30,10,20,17,1017,83,5,20141101020000
519,"Jiaxing University, Jiaxing",,30.745099,120.735004,154,59,4,21,13,11,20,17,1017,83,5,20141101020000
520,"Qinghe Primary School, Jiaxing",,30.775685,120.747969,151,56,2,19,15,12,20,17,1017,83,5,20141101020000
521,Jiaxing,,30.751627,120.762862,142,56,15,22,30,10,20,17,1017,83,5,20141101020000
522,"Chengbei water plant, Huzhou",,30.891155,120.096593,112,44,4,16,7,13,19,17,1017,88,3,20141101020000
523,"Jishan new village, Huzhou",,30.859939,120.120168,144,52,3,19,8,12,18,16,1015,88,3,20141101020000
524,"Town west water plant, Huzhou",,30.862371,120.084577,114,53,4,18,7,11,19,17,1017,88,3,20141101020000
525,Huzhou,,30.892304,120.091694,112,44,4,16,7,13,19,17,1017,88,3,20141101020000
526,"Donghu middle school, Shaoxing",,29.990447,120.647547,63,53,21,22,29,14,19,14,1018,73,3,20141101020000
527,"City EPA station, Shaoxing",,30.001695,120.584318,124,53,7,19,17,6,19,14,1018,73,2,20141101020000
528,"Chengdong BDA committee, Shaoxing",,29.986643,120.613578,147,50,7,15,22,9,19,14,1018,73,2,20141101020000
529,"Paojiang station, Shaoxing",,30.07574,120.62154,139,57,7,22,29,12,19,14,1018,73,3,20141101020000
530,"Shaoxing technical school, Shaoxing",,29.930983,120.577131,119,51,9,18,19,11,19,14,1018,73,3,20141101020000
531,"Library, Shaoxing",,29.706266,120.253183,134,52,3,13,18,21,19,14,1018,73,3,20141101020000
532,"Transporation management station, Shaoxing",,29.726405,120.221602,112,52,3,12,12,23,19,14,1018,73,3,20141101020000
533,"Dongpu Town Governement, Shaoxing",,30.049601,120.539893,95,59,-,19,19,11,19,14,1018,73,3,20141101020000
534,Shaoxing,,29.993122,120.590182,124,53,7,19,17,6,-,-,0,-,-,20141101020000
535,"City Monitoring Station, Jinhua",,29.100031,119.690373,91,51,7,16,11,11,19,16,0,83,2,20141101020000
536,"No.15 middle school, Jinhua",,29.074022,119.652121,107,49,4,11,5,11,19,16,0,83,2,20141101020000
537,"No.4 middle school, Jinhua",,29.110109,119.653654,91,40,6,17,11,10,19,16,0,83,2,20141101020000
538,"Beiyuan, Jinhua",,29.332898,120.083351,109,52,7,20,20,15,20,16,0,79,2,20141101020000
539,"Jiangdong, Jinhua",,29.302486,120.095291,117,49,9,17,20,14,20,16,0,79,2,20141101020000
540,Jinhua,,29.076083,119.65215,107,49,4,11,5,11,19,16,0,83,2,20141101020000
541,"EPA building, Quzhou",,28.937291,118.876081,72,50,3,13,8,9,19,19,1016,98,3,20141101020000
542,"Experimental school, Quzhou",,28.961502,118.880916,85,32,11,13,7,8,19,19,1016,98,3,20141101020000
543,"Quzhou University, Quzhou",,28.971452,118.860052,107,48,4,16,5,9,19,19,1016,98,3,20141101020000
544,Quzhou,,28.966994,118.864252,107,48,4,16,5,9,19,19,1016,98,3,20141101020000
545,"Putuo east port, Zhoushan",,29.951412,122.317679,107,51,6,11,4,12,20,16,1017,78,4,20141101020000
546,"Dinghai tanfeng, Zhoushan",,30.018014,122.126566,93,53,7,12,6,20,20,16,1017,78,4,20141101020000
547,Zhoushan,,29.983049,122.210763,137,55,2,19,3,12,20,16,1017,78,4,20141101020000
548,"Taizhou EPA building, Taizhou",,28.651216,121.42331,78,31,8,9,2,8,22,18,0,78,2,20141101020000
549,"Luqiao Tian Yang Wang, Taizhou",,28.574364,121.381194,114,56,6,16,8,8,22,18,0,78,2,20141101020000
550,"Huangyan EPA building, Taizhou",,28.656151,121.285064,99,46,3,17,2,7,21,18,0,83,2,20141101020000
551,"Yu Zhuang Qian, Lishui",,28.419638,119.883884,154,66,17,15,5,9,23,19,1016,75,2,20141101020000
552,"Monitoring station building, Lishui",,28.444379,119.923103,144,57,22,14,4,7,23,19,1016,75,2,20141101020000
553,"Liandu primary school, Lishui",,28.450912,119.939332,152,61,20,7,2,8,23,19,1016,75,2,20141101020000
554,Lishui,,28.464224,119.927201,144,57,22,14,4,7,23,19,1016,75,2,20141101020000
1248,Jingningxian,,27.977454,119.634837,151,75,3,17,8,6,,,,,,20141101020000
555,Taigu Primary School,,29.864178,121.60022,117,47,35,20,9,12,20,16,1017,78,4,20141101020000
556,Qianhu shuihan,,29.862459,121.5328,119,61,5,18,9,13,20,16,1017,78,4,20141101020000
557,Sanjiang secondary schools,,29.891563,121.568427,139,53,39,21,12,14,20,16,1017,78,4,20141101020000
558,Longsai Hospital,,29.957301,121.726734,149,68,4,25,18,13,20,16,1017,78,4,20141101020000
559,Beilun District EPB,,29.911633,121.850773,117,55,4,19,15,12,20,16,1017,78,4,20141101020000
560,Wanli University,,29.821314,121.574364,117,45,6,21,16,13,20,16,1017,78,4,20141101020000
561,Qianhu water plant,,29.774416,121.648136,112,43,31,20,6,12,20,16,1017,78,4,20141101020000
562,Municipal management station,,29.899182,121.626691,114,50,47,15,5,13,20,16,1017,78,4,20141101020000
1177,Daxie Literary Museum,,29.9027,121.986447,157,52,5,22,7,11,20,16,1017,78,4,20141101020000
1178,Cixi EPB,,30.165807,121.248991,119,56,4,18,12,18,20,16,1017,78,4,20141101020000
1179,Cixi Experimently Primary School,,30.179808,121.268672,109,57,4,18,11,14,20,16,1017,78,4,20141101020000
1180,"Yongsan Park, Yuyao",,30.050842,121.162477,102,49,2,18,8,13,20,16,1017,78,4,20141101020000
1181,"Qilupu Water Company, Yuyao",,30.039112,121.133416,134,55,2,19,15,12,20,16,1017,78,4,20141101020000
1182,Fenghua EPB,,29.666557,121.42069,117,36,33,16,7,13,20,16,1017,78,4,20141101020000
1183,"Yuelong station, Ninghai",,29.296505,121.445872,114,47,5,18,8,12,20,16,1017,78,4,20141101020000
1184,"Wenfeng Primary School, Xiangshan",,29.470908,121.889544,151,54,5,16,6,11,20,16,1017,78,4,20141101020000
1185,"Chengnan Primary School, Ninghai",,29.293812,121.43666,102,35,8,16,9,12,20,16,1017,78,4,20141101020000
1186,"Xingang Primary School, Xiangshan",,29.203878,121.952514,95,25,6,13,5,10,20,16,1017,78,4,20141101020000
1356,Haishu City Monitoring Center,,29.86835,121.539341,119,62,21,18,9,14,20,16,1017,78,4,20141101020000
1357,Fenghua Xikou government,,29.693164,121.29331,95,36,23,16,5,14,20,16,1017,78,4,20141101020000
1294,Ningbo,,29.865766,121.548164,114,50,47,15,5,13,20,16,1017,78,4,20141101020000
1187,Fuyang,,30.046157,119.96468,102,61,11,15,4,11,-,-,0,-,-,20141101020000
1188,Yiwu,,29.304353,120.079794,117,52,9,20,20,15,-,-,0,-,-,20141101020000
1189,Zhuji,,29.711185,120.240748,134,52,3,13,18,23,19,14,1018,73,3,20141101020000
563,"Shanxi Road , Nanjing",,32.06795,118.779216,176,84,3,21,2,10,17,16,1019,94,3,20141101020000
564,"Ruijin Road , Nanjing",,32.029321,118.80817,171,81,2,21,6,12,17,16,1019,94,3,20141101020000
565,"Xuanwu Lake, Nanjing",,32.075423,118.800188,173,80,3,17,4,11,17,16,1019,94,3,20141101020000
566,"Olympic Center, Nanjing",,32.007171,118.742217,172,91,2,11,2,7,17,16,1019,94,3,20141101020000
567,"Xianlin University Town , Nanjing",,32.106958,118.919882,177,99,2,22,7,13,17,16,1019,94,3,20141101020000
568,Nanjing,,32.058179,118.802061,169,85,3,17,5,10,17,16,1019,94,3,20141101020000
569,"Shangfang hill , Suzhou",,31.24502,120.565211,147,51,5,15,4,7,19,17,1017,88,3,20141101020000
570,"Wuzhong District , Suzhou",,31.268105,120.61717,147,57,3,16,5,13,19,16,1017,83,3,20141101020000
571,"Suzhou New District , Suzhou",,31.297277,120.547262,153,54,5,19,20,11,19,17,1017,88,3,20141101020000
572,"Suzhou Industrial Area, Suzhou",,31.307603,120.673257,154,48,2,21,9,10,19,17,1017,88,3,20141101020000
573,"Xiangcheng district, Suzhou",,31.368674,120.645209,158,62,3,22,10,11,19,17,1017,88,3,20141101020000
574,Suzhou,,31.296701,120.589493,164,66,3,22,16,13,19,16,1017,83,5,20141101020000
575,"South suburb , Nantong",,31.957836,120.917218,163,62,8,11,6,2,19,16,0,80,3,20141101020000
576,"Xinghu park, Nantong",,31.927873,120.944254,165,71,9,17,6,9,20,16,0,77,3,20141101020000
577,"Zilang school, Nantong",,32.039638,120.814358,159,69,11,13,5,0,19,16,0,80,3,20141101020000
578,Nantong,,31.978005,120.898555,167,71,11,17,6,9,20,16,0,77,3,20141101020000
579,Lianyungang,,34.595509,119.226814,152,84,21,27,10,7,8,8,1016,96,0,20141101020000
580,"Hongmen police substation, Lianyungang",,34.588692,119.146693,85,44,3,13,12,8,15,14,1019,94,1,20141101020000
581,"Xugou Nuclear Expert Village , Lianyungang",,34.749957,119.373707,93,44,13,9,11,6,15,14,1019,94,1,20141101020000
582,"Hengrui pharmaceutical company, BDA, Lianyungang",,34.697574,119.353668,87,42,12,12,9,8,15,14,1019,94,1,20141101020000
583,"City Monitoring Station, Lianyungang",,34.586791,119.186929,93,60,5,13,13,9,15,14,1019,94,1,20141101020000
584,"Yellow river new village , Xuzhou",,34.271542,117.177241,186,103,2,19,18,9,15,14,1019,89,0,20141101020000
585,"Tongshan Veterinary Hospital , Xuzhou",,34.307086,117.197766,174,90,2,15,9,4,15,14,1019,89,0,20141101020000
586,"New Town , Xuzhou",,34.213992,117.261718,192,109,2,16,24,4,15,14,1019,89,0,20141101020000
587,"Taoyuan road, Xuzhou",,34.289822,117.249721,236,101,4,12,18,16,15,14,1019,89,0,20141101020000
588,"Agricultural Science Academy , Xuzhou",,34.27655,117.299079,186,103,1,9,13,7,15,14,1019,89,0,20141101020000
589,"Tongshan EPA, Xuzhou",,34.179384,117.171798,186,110,6,5,20,6,15,14,1019,89,0,20141101020000
590,Xuzhou,,34.20346,117.289825,236,110,6,19,24,14,15,14,1019,89,0,20141101020000
591,Yangzhou,,32.39233,119.418446,159,69,10,19,10,5,11,9,0,90,6,20141101020000
592,"Hanjiang Monitoring Station, Yangzhou",,32.374218,119.394484,63,38,7,8,5,2,19,15,0,77,2,20141101020000
593,"No. 4 Hospital, Yangzhou",,32.401394,119.44444,65,37,10,3,13,6,19,15,0,77,2,20141101020000
594,"City Monitoring Station, Yangzhou",,32.406588,119.41591,72,47,8,2,16,5,19,15,0,77,2,20141101020000
595,"University Town , Wuxi",,31.484752,120.273571,132,63,2,6,11,10,19,17,1017,88,3,20141101020000
596,"Shibei High School , Wuxi",,31.619969,120.279584,163,79,9,16,13,6,19,17,1017,88,3,20141101020000
597,"Yuhong Elementary School , Wuxi",,31.561155,120.249588,153,65,2,15,10,11,19,17,1017,88,3,20141101020000
598,Wuxi,,31.488746,120.31575,164,80,3,17,14,12,-,-,0,-,-,20141101020000
599,Changzhou,,31.808037,119.979205,172,86,6,22,36,13,11,9,0,88,5,20141101020000
600,"Chengjian School, Changzhou",,31.776476,119.937681,152,72,5,12,7,8,20,15,0,74,3,20141101020000
601,"Changzhou Engineering Institute , Changzhou",,31.806828,119.966724,139,59,7,14,8,8,20,15,0,74,3,20141101020000
602,"Wujin Monitoring Station, Changzhou",,31.701788,119.939676,155,62,3,11,8,8,19,15,0,78,3,20141101020000
603,"City Monitoring Station, Changzhou",,31.777201,119.979426,134,56,10,16,9,10,20,15,0,74,3,20141101020000
604,Zhenjiang,,32.18597,119.431281,170,79,4,39,15,13,9,8,0,93,5,20141101020000
605,"New District Administrative office , Zhenjiang",,32.186174,119.685021,99,40,12,17,6,7,18,16,1018,88,3,20141101020000
606,"Vocational Education Center , Zhenjiang",,32.212973,119.496253,68,48,11,16,4,16,18,16,1018,88,3,20141101020000
607,"Dantu Monitoring Station , Zhenjiang",,32.130026,119.435432,70,38,15,11,5,8,18,16,1018,88,3,20141101020000
608,"City Monitoring Station, Zhenjiang",,32.202178,119.439766,89,36,12,15,6,9,18,16,1018,88,3,20141101020000
609,"Gaogang Adminstrative office , Taizhoushi",,32.300768,119.886757,153,59,6,9,11,8,18,15,0,81,2,20141101020000
610,"Students Innovation Park , Taizhoushi",,32.461672,119.892761,124,-,9,8,14,8,19,15,0,77,2,20141101020000
611,Taizhoushi,,32.453555,119.927852,152,64,5,22,8,11,19,15,0,77,2,20141101020000
612,"Yancheng power station , Yancheng",,33.400859,120.123067,61,29,23,7,6,4,,,0,,,20141101020000
613,Yancheng,,33.345939,120.168504,144,52,30,5,3,7,11,10,1016,95,4,20141101020000
614,"Wenfeng Middle School , Yancheng",,33.370531,120.134041,63,30,20,9,10,5,,,0,,,20141101020000
615,"BDA Management Committe, Yancheng",,33.393191,120.22978,34,17,24,7,6,3,,,0,,,20141101020000
616,"City Monitoring Station, Yancheng",,33.390623,120.164423,76,29,24,2,4,3,,,0,,,20141101020000
617,Suqian,,33.960666,118.281004,160,87,24,7,5,7,11,10,0,91,6,20141101020000
618,"Suqian College , Suqian",,33.951472,118.298523,112,60,5,14,4,10,19,13,0,69,2,20141101020000
619,"Suqian Middle School , Suqian",,33.95784,118.249505,102,67,5,21,6,9,19,13,0,69,2,20141101020000
620,"Suyu District Environmental Protection Agency , Suqian",,33.94932,118.326569,114,56,3,13,3,6,18,13,0,75,2,20141101020000
621,"City Monitoring Station, Suqian",,33.956982,118.277022,153,62,4,20,6,10,19,13,0,69,2,20141101020000
622,Taizhou,,28.653436,121.425185,78,31,8,9,2,8,22,18,0,78,2,20141101020000
623,Donghu Liyuan,,30.572324,114.377844,188,75,19,15,9,12,19,14,1020,73,3,20141101020000
624,Yuehu Lake,,30.554662,114.256937,178,74,16,25,6,10,19,14,1020,73,3,20141101020000
625,Hankou Huaqiao ,,30.61724,114.287652,185,75,13,22,10,14,19,14,1020,73,3,20141101020000
626,Wuchang Ziyang ,,30.530801,114.309438,184,104,14,24,14,11,19,14,1020,73,3,20141101020000
627,Qingshan Ganghua,,30.622435,114.375599,201,83,15,25,18,12,19,14,1020,73,3,20141101020000
628,Dunkou Xinou,,30.480091,114.162176,175,80,16,17,13,13,19,14,1020,73,3,20141101020000
629,Donghu Gaoxin,,30.48095,114.40724,191,80,20,26,16,14,19,14,1020,73,3,20141101020000
630,Wujianshan,,30.63114,114.135907,190,71,11,16,6,15,19,14,1020,73,3,20141101020000
631,Yuanshun Road,,30.297142,113.858587,190,75,15,8,15,10,19,14,1020,73,3,20141101020000
632,Wuhan,,30.590689,114.310838,168,82,12,12,8,13,19,14,1020,73,3,20141101020000
1190,"Silingsan Factory, Yichang",,30.713288,111.306585,134,69,3,16,12,7,15,15,1021,97,1,20141101020000
633,Yichang,,30.689528,111.292131,154,73,7,19,16,12,15,15,1021,97,1,20141101020000
633,Yichang,,30.689528,111.292131,154,73,7,19,16,12,15,15,1021,97,1,20141101020000
1191,"City Library , Jingzhou",,30.31494,112.260844,163,90,16,17,36,11,15,13,1020,89,0,20141101020000
1192,"City committee communist party school, Jingzhou",,30.35054,112.20743,173,98,15,13,21,12,15,13,1020,89,0,20141101020000
1193,"kerong EPA, Jingzhou",,30.302965,112.29443,174,92,17,12,26,16,15,13,1020,89,0,20141101020000
634,Jingzhou,,30.332608,112.245451,174,98,17,17,36,16,15,13,1020,89,0,20141101020000
634,Jingzhou,,30.332608,112.245451,174,98,17,17,36,16,15,13,1020,89,0,20141101020000
635,Huangshi,,30.19723,115.043908,206,148,4,18,19,30,18,,1021,100,2,20141101020000
635,Huangshi,,30.19723,115.043908,206,148,4,18,19,30,18,,1021,100,2,20141101020000
1194,"Chenjiaying, Huangshi",,30.232823,115.067923,215,155,4,14,10,27,18,,1021,100,2,20141101020000
1195,"Chenjiawan , Huangshi",,30.200422,115.082138,224,159,3,21,36,33,18,,1021,100,2,20141101030000
1196,"Xinxialu, Huangshi",,30.17332,114.954357,190,126,3,24,25,31,18,,1021,100,2,20141101030000
1197,"Tie montian, Huangshi",,30.203885,114.906439,225,256,4,23,9,23,18,,1021,100,2,20141101030000
1198,"BDA, Huangshi",,30.207491,115.031739,193,150,5,9,18,34,18,,1021,100,2,20141101030000
636,Shiyan,,32.627208,110.803311,85,52,9,16,7,1,13,,,97,1,20141101030000
636,Shiyan,,32.627208,110.803311,85,52,9,16,7,1,13,,,97,1,20141101030000
1199,"Wudang Mountain , Shiyan",,32.392921,111.047655,50,15,26,3,3,5,11,,,99,1,20141101030000
1200,"Riverside Village , Shiyan",,32.647286,110.785335,91,53,9,19,8,1,13,,,97,1,20141101030000
1201,"Liujiagou , Shiyan",,32.636732,110.731129,76,50,9,13,7,1,13,,,97,1,20141101030000
637,Xiangyang,,32.007029,112.128496,167,84,2,12,13,11,13,,1021,93,1,20141101030000
638,Ezhou,,30.389244,114.899884,216,122,13,15,9,18,17,,1028,100,4,20141101030000
638,Ezhou,,30.389244,114.899884,216,122,13,15,9,18,17,,1028,100,4,20141101030000
1203,"City government, Ezhou",,30.391836,114.892822,208,113,12,15,12,16,17,,1028,100,4,20141101030000
1204,"Zhaojiaba, Ezhou",,30.368966,114.90365,223,132,9,14,7,21,17,,1028,100,4,20141101030000
1205,"Fankou BDA, Ezhou",,30.410759,114.818225,215,131,17,9,10,15,16,,1028,100,4,20141101030000
639,Jingmen,,31.033208,112.205093,194,101,12,20,26,8,16,,1015,93,3,20141101030000
639,Jingmen,,31.033208,112.205093,194,101,12,20,26,8,16,,1015,93,3,20141101030000
640,Xiaogan,,30.922089,113.922387,192,121,24,6,10,15,18,,1020,77,4,20141101030000
640,Xiaogan,,30.922089,113.922387,192,121,24,6,10,15,18,,1020,77,4,20141101030000
1206,"wenhua street, Shenyang , Xiaogan",,30.925856,113.92104,194,125,23,10,1,18,18,,1020,77,4,20141101030000
1207,"Dongcheng District , Huludao , Xiaogan",,30.917963,113.943904,190,117,24,1,20,12,18,,1020,77,4,20141101030000
641,Huanggang,,30.45124,114.877378,203,125,17,16,8,22,19,,1029,95,4,20141101030000
641,Huanggang,,30.45124,114.877378,203,125,17,16,8,22,19,,1029,95,4,20141101030000
1208,"Dazhou Island, Huanggang",,30.446205,114.900323,206,136,16,21,7,20,19,,1028,100,3,20141101030000
1209,"Workers Center , Huanggang",,30.469244,114.912504,200,113,19,10,9,23,19,,1028,100,3,20141101030000
642,Xianning,,29.838978,114.327898,180,103,5,12,8,34,16,,993,100,1,20141101030000
642,Xianning,,29.838978,114.327898,180,103,5,12,8,34,16,,993,100,1,20141101030000
1210,"Municipal Development and Reform Commission , Xianning",,29.818645,114.328461,183,102,3,16,12,35,14,,992,98,1,20141101030000
1211,"Xianan District Governement, Xianning",,29.51107,114.181864,185,104,5,16,13,38,16,,1002,100,2,20141101030000
1212,"Yangtze River Industrial Park , Xianning",,29.883098,114.32909,179,105,7,9,1,34,16,,993,100,1,20141101030000
1213,"Qianshan Park, Xianning",,29.815351,114.328689,175,101,5,13,11,28,16,,993,100,1,20141101030000
643,Suizhou,,31.688342,113.388675,183,106,5,9,20,22,18,,1016,81,3,20141101030000
643,Suizhou,,31.688342,113.388675,183,106,5,9,20,22,18,,1016,81,3,20141101030000
1338,"City committee communist party school, Suizhou",,31.725316,113.3648,190,111,3,8,19,15,18,,1016,81,3,20141101030000
1339,"Forestry Bureau, Suizhou",,31.690065,113.383157,172,97,9,5,20,16,18,,1016,81,3,20141101030000
645,Xiantao,,30.360228,113.460616,180,113,6,14,28,14,15,,1028,97,5,20141101030000
645,Xiantao,,30.360228,113.460616,180,113,6,14,28,14,15,,1028,97,5,20141101030000
1214,"Xiangcheng Yundong Street, Xiangfan",,32.017716,112.16102,169,77,1,20,14,8,13,,1021,93,1,20141101030000
1359,"Fancheng Xinhua Road , Xiangfan",,32.0544,112.145224,164,90,2,3,13,13,13,,1021,93,1,20141101030000
655,"City Environmental Monitoring Station, Baotou",,40.657201,109.886738,139,74,15,34,54,8,,,0,,,20141101030000
656,"Donghe EPB, Baotou",,40.586213,110.002224,91,64,10,31,26,11,,,0,,,20141101030000
657,"Baotou shopping mall, Baotou",,40.508334,109.819085,95,67,16,32,61,18,,,0,,,20141101030000
658,"Huilong logistics, Baotou",,40.633436,109.879821,132,59,16,29,26,10,,,0,,,20141101030000
659,Baotou,,40.658597,109.846051,139,74,17,34,61,18,,,0,,,20141101030000
660,"Huatai Automobile Mall, Eerduosi",,39.837048,109.972209,57,63,35,6,4,4,1,-11,1028,26,5,20141101030000
661,"Olympus Garden, Eerduosi",,39.789171,109.987742,68,63,34,10,28,5,1,-11,1028,26,5,20141101030000
662,Eerduosi,,39.609284,109.78704,68,63,35,11,28,7,1,-11,1028,26,5,20141101030000
663,"Tianyi Road, Chifeng",,42.275552,118.88507,46,23,19,8,1,8,5,-3,1020,45,3,20141101030000
664,"Songshan No.1 Middle School, Chifeng",,42.329307,118.793045,134,73,40,10,35,5,5,-3,1020,45,3,20141101030000
665,"Hada Street, Chifeng",,42.280714,118.988235,85,61,10,12,10,7,5,-3,1020,45,3,20141101030000
666,"Songshan Road, Chifeng",,42.171487,118.89501,117,87,35,3,8,8,5,-3,1020,45,3,20141101030000
667,Chifeng,,42.259752,118.893027,134,87,40,12,35,8,5,-3,1020,45,3,20141101030000
674,Fuzhou,,26.071406,119.301294,63,54,6,17,1,6,27,20,1014,65,3,20141101030000
675,"Xidong, Xiamen",,24.815345,118.161848,104,51,50,8,6,5,27,21,1014,70,3,20141101030000
676,"Hongwen, Xiamen",,24.473969,118.156281,80,56,40,14,10,6,27,21,1014,70,3,20141101030000
677,"Gulangyu, Xiamen",,24.443168,118.068571,153,69,42,24,17,7,27,21,1014,70,3,20141101030000
678,"Huli, Xiamen",,24.51235,118.099146,144,72,46,14,9,6,27,21,1014,70,3,20141101030000
679,Xiamen,,24.477187,118.094402,144,72,46,14,9,6,-,-,0,-,-,20141101030000
680,"Qingyuan Montain, Quanzhou",,24.939503,118.598337,42,27,31,5,4,4,27,21,1014,70,3,20141101030000
681,"Tushan Street, Quanzhou",,24.90867,118.586397,76,40,89,9,4,6,27,21,1014,70,3,20141101030000
682,"Wanan, Quanzhou",,24.304154,118.070903,72,44,14,10,3,6,26,21,1015,74,3,20141101030000
683,Quanzhou,,24.87179,118.68001,76,40,89,9,7,6,27,21,1014,70,3,20141101030000
687,"Jiancaoping, Taiyuan",,37.887889,112.528383,55,35,10,8,15,8,9,-1,1025,50,4,20141101030000
688,"Jianhe, Taiyuan",,37.910779,112.579258,42,27,5,7,14,17,9,-1,1025,50,4,20141101030000
689,"Shanglan, Taiyuan",,38.011589,112.440679,13,25,11,5,8,10,9,-1,1025,50,4,20141101030000
690,"Jinyuan, Taiyuan",,37.713164,112.475552,97,54,2,15,31,13,9,-1,1025,50,4,20141101030000
691,"Xiaodian, Taiyuan",,37.782137,112.483533,53,29,11,11,17,12,10,-6,1025,32,6,20141101030000
692,"Taoyuan, Taiyuan",,37.869752,112.543332,38,20,7,11,29,14,9,-1,1025,50,4,20141101030000
693,"Wucheng, Taiyuan",,37.819998,112.576252,95,40,7,9,40,19,9,-1,1025,50,4,20141101030000
694,"Nanzhai, Taiyuan",,37.985902,112.555312,124,59,3,12,16,20,9,-1,1025,50,4,20141101030000
695,"Jinsheng, Taiyuan",,37.781205,112.494494,70,38,13,8,23,10,9,-1,1025,50,4,20141101030000
696,Taiyuan,,37.871115,112.555178,38,20,7,11,29,14,-,-,0,-,-,20141101030000
697,"Monitoring station, Changzhi",,36.194062,113.10389,99,41,11,18,16,18,,,0,,,20141101030000
698,"Auditing bureau, Changzhi",,36.212787,113.095221,132,49,13,17,17,13,,,0,,,20141101030000
699,"Qinghua station, Changzhi",,36.154328,113.116385,107,50,10,21,13,21,,,0,,,20141101030000
700,"No.8 middle school, Changzhi",,36.185451,113.099481,97,51,7,19,22,10,,,0,,,20141101030000
701,Changzhi,,36.195553,113.12292,107,51,10,21,22,21,,,0,,,20141101030000
702,"Yungang Hotel, Datong",,40.076997,113.278079,61,30,24,6,12,12,3,-2,1026,63,2,20141101030000
703,"college of education, Datong",,40.085608,113.27808,78,34,12,8,35,8,3,-2,1026,63,2,20141101030000
704,Datong,,40.078016,113.307143,61,41,24,15,35,12,3,-2,1026,63,2,20141101030000
705,"Technical Schools, Linfen",,36.07131,111.509046,34,12,12,7,13,19,6,-11,0,25,8,20141101030000
706,"Municipal party committee, Linfen",,36.087425,111.508771,38,17,18,8,4,11,6,-11,0,25,8,20141101030000
1073,"City Monitoring Station, Linfen",,36.097676,111.518739,74,25,16,12,12,8,6,-11,0,25,8,20141101030000
707,"South Airport, Linfen",,36.041614,111.497968,34,24,26,10,10,4,6,-11,0,25,8,20141101030000
708,Linfen,,36.087944,111.525098,74,25,26,12,13,20,6,-11,0,25,8,20141101030000
709,"City center, Yangquan",,37.848012,113.578636,80,71,29,10,58,11,8,2,1024,66,3,20141101030000
710,Yangquan,,37.857475,113.586921,97,76,30,18,78,16,9,-3,1024,43,4,20141101030000
711,"Water Company, Jincheng",,35.504787,112.857245,87,51,8,16,73,6,11,4,1023,56,2,20141101030000
712,"Baiyun shopping mall, Jincheng",,35.492858,112.841566,91,50,9,9,17,22,11,4,1023,56,2,20141101030000
713,"City EPA, Jincheng",,35.488422,112.858528,99,51,8,6,27,9,11,4,1023,56,2,20141101030000
714,"Institute of Technology, Jincheng",,35.484844,112.878073,85,59,8,7,6,10,11,4,1023,56,2,20141101030000
715,"No.1 middle school, Jincheng",,35.478725,112.838636,63,21,9,5,20,5,11,4,1023,56,2,20141101030000
716,Jincheng,,35.490287,112.85794,99,51,8,16,27,10,11,4,1023,56,2,20141101030000
718,"District Government, Shuozhou",,39.320857,112.430641,50,26,11,14,39,5,7,-7,1025,22,4,20141101030000
719,"City EPA, Shuozhou",,39.331495,112.407997,46,20,25,21,34,7,7,-7,1025,22,4,20141101030000
720,"No.2 middle school, Shuozhou",,39.377963,112.432877,46,29,25,7,2,5,7,-7,1025,22,4,20141101030000
721,Shuozhou,,39.332756,112.439672,50,29,25,21,36,9,7,-7,1025,22,4,20141101030000
722,"Jinlun compound, Jinzhong",,37.697891,112.771017,157,69,5,13,65,16,9,-3,1024,43,4,20141101030000
723,"Hydraulic Component Factory, Jinzhong",,37.688355,112.725844,156,73,4,1,26,18,9,-3,1024,43,4,20141101030000
724,"Nandu compound, Jinzhong",,37.713148,112.732036,149,71,3,5,13,15,9,-3,1024,43,4,20141101030000
725,"Yuci district government, Jinzhong",,37.698228,112.714167,149,62,3,5,18,17,9,-3,1024,43,4,20141101030000
726,Jinzhong,,37.687705,112.759187,157,73,4,16,65,14,9,-3,1024,43,4,20141101030000
727,"Yuncheng Middle School, Yuncheng",,35.012345,111.003215,82,58,13,11,10,11,12,5,1026,55,2,20141101030000
728,"Yudou BDA, Yuncheng",,35.05065,111.029571,78,56,12,6,2,8,12,5,1026,55,2,20141101030000
730,"Regional Technical School, Yuncheng",,35.028727,110.974076,85,44,12,4,5,16,12,5,1026,55,2,20141101030000
731,"Airport new district, Yuncheng",,35.084515,111.05339,65,31,17,8,41,18,12,5,1026,55,2,20141101030000
732,Yuncheng,,35.025675,111.013344,85,58,17,11,41,18,-,-,0,-,-,20141101030000
733,"Jiyin, Xinzhou",,38.413292,112.742432,174,110,9,24,49,7,9,-3,1024,43,4,20141101030000
734,"BDA, Xinzhou",,38.450069,112.736723,93,40,2,3,35,9,9,-3,1024,43,4,20141101030000
735,"Convention Center, Xinzhou",,38.492043,112.709772,157,43,7,22,49,24,9,-3,1024,43,4,20141101030000
736,Xinzhou,,38.417244,112.740742,174,110,9,24,49,24,9,-3,1024,43,4,20141101030000
737,"City EPA, Luliang",,37.522189,111.144365,85,50,3,8,19,24,13,12,0,92,1,20141101030000
738,"Soybean factory, Luliang",,37.51689,111.135101,63,73,5,5,54,30,13,12,0,92,1,20141101030000
739,"Water Company, Luliang",,37.53394,111.138834,95,57,6,12,22,26,13,12,0,92,1,20141101030000
740,Luliang,,25.027007,103.668566,95,73,5,12,54,29,13,12,0,92,1,20141101030000
741,"City government, Sanmenxia",,34.776251,111.198781,59,42,5,15,9,8,12,5,1026,55,2,20141101030000
743,"BDA, Sanmenxia",,34.800434,111.204332,55,29,8,14,11,8,12,5,1026,55,2,20141101030000
744,Sanmenxia,,34.771506,111.206129,59,55,8,21,14,12,12,5,1026,55,2,20141101030000
745,"Food Factory, Changchun",,43.919094,125.329521,203,-,5,20,29,16,7,-1,1015,57,5,20141101030000
746,"Bus Factory, Changchun",,43.912337,125.293431,197,105,6,20,20,17,7,-1,1015,57,5,20141101030000
747,"Institute of Posts and Telecommunications, Changchun",,43.842368,125.285005,259,487,2,31,58,22,7,-1,1015,57,5,20141101030000
748,"Laodong Park, Changchun",,43.877293,125.371519,219,181,3,31,44,18,7,-1,1015,57,5,20141101030000
749,"Forest area, Changchun",,43.871825,125.331519,235,168,2,24,21,26,7,-1,1015,57,5,20141101030000
750,"Jinyuetan, Changchun",,43.79031,125.460561,308,158,8,22,7,26,7,-1,1015,57,5,20141101030000
751,"Shuaiwanzi, Changchun",,43.552321,125.639086,631,701,6,29,6,10,7,-1,1015,57,5,20141101030000
752,"Economic Development Zone Sanitation Department, Changchun",,43.869221,125.42365,246,144,9,24,22,19,7,-1,1015,57,5,20141101030000
753,"High-tech Zone Administrative Committee, Changchun",,43.819064,125.256375,-,-,-,-,-,-,-,-,0,-,-,20141101030000
754,"Daishan Park, Changchun",,43.852365,125.223399,259,153,6,16,8,15,7,-1,1015,57,5,20141101030000
755,Changchun,,43.819415,125.329977,259,181,2,31,58,22,-,-,0,-,-,20141101030000
756,"Hadawan, Jilin",,43.888081,126.545727,764,897,5,41,11,30,9,3,0,63,4,20141101030000
757,"Fengman, Jilin",,43.768169,126.678802,621,999,17,31,17,26,9,3,0,63,4,20141101030000
758,"Electric Power College, Jilin",,43.827403,126.502281,642,892,20,45,15,27,8,3,0,70,4,20141101030000
759,"Jiangnan Park, Jilin",,43.83531,126.556519,645,669,6,49,17,31,9,3,0,63,4,20141101030000
760,"Dongjuzi, Jilin",,43.838597,126.590068,575,723,1,40,16,26,9,3,0,63,4,20141101030000
763,Jilin,,43.840137,126.555262,797,999,23,54,17,31,9,3,0,63,4,20141101030000
764,"Lingbei, Haerbin",,45.756979,126.548008,724,759,11,50,21,38,5,-1,1012,65,6,20141101030000
765,"Songbei Commercial University, Haerbin",,45.818624,126.566963,715,665,8,47,36,12,5,-1,1012,65,6,20141101030000
766,"Acheng huining, Haerbin",,45.544286,126.985183,792,275,5,23,6,18,5,-1,1012,65,6,20141101030000
767,"Nangang College Street, Haerbin",,45.724121,126.604906,744,889,9,41,32,31,5,-1,1012,65,6,20141101030000
768,"Taiping Hongwei Park, Haerbin",,45.775332,126.695101,626,824,8,49,47,22,5,-1,1012,65,6,20141101030000
769,"Daowai Chengde Square, Haerbin",,45.768637,126.640955,640,790,4,49,50,27,5,-1,1012,65,6,20141101030000
770,"Xiangfang Hongqi Street, Haerbin",,45.733936,126.691083,670,760,7,11,22,27,5,-1,1012,65,6,20141101030000
771,"Dongli Heping Road, Haerbin",,45.727765,126.651974,687,847,8,51,41,20,5,-1,1012,65,6,20141101030000
772,"Daoli Jianguo Road, Haerbin",,45.749715,126.59891,647,831,13,62,50,28,5,-1,1012,65,6,20141101030000
773,"Pingfang Light Factory, Haerbin",,45.611951,126.620898,778,510,4,39,17,21,5,-1,1012,65,6,20141101030000
774,"Hulan Normal College, Haerbin",,45.983745,126.616553,713,149,26,62,5,15,5,-1,1012,65,6,20141101030000
775,"Provincial Academy of Agricultural Sciences, Haerbin",,45.686141,126.626517,709,823,5,43,45,16,5,-1,1012,65,6,20141101030000
776,Haerbin,,45.805757,126.541007,715,837,8,47,36,12,-,-,0,-,-,20141101030000
777,"Anju Compound, Qiqihaer",,47.365672,123.937016,80,30,17,6,5,9,0,-1,1014,92,1,20141101030000
778,"Farming Vehicule Factory, Qiqihaer",,47.326793,123.961427,93,40,19,11,2,6,0,-1,1014,92,1,20141101030000
779,"Fuqu EPA, Qiqihaer",,47.1853,123.62322,112,89,22,1,2,7,0,-1,1014,92,1,20141101030000
780,"City Center Square, Qiqihaer",,47.343096,123.96192,114,42,15,5,30,14,0,-1,1014,92,1,20141101030000
1217,"City Environmental Monitoring Station, Qiqihaer",,47.303639,123.957551,109,66,18,10,2,5,0,-1,1014,92,1,20141101030000
781,Qiqihaer,,47.356387,123.924736,114,89,22,11,30,14,0,-1,1014,92,1,20141101030000
782,"Saertu District, Daqing",,46.582368,125.152904,175,85,26,3,8,8,0,0,1014,92,2,20141101030000
783,"Datong District, Daqing",,46.036786,124.842115,160,84,22,5,7,13,0,0,1014,92,2,20141101030000
784,"Honggang District, Daqing",,46.418381,124.88973,170,83,18,12,5,9,0,0,1014,92,2,20141101030000
785,"Longfeng District, Daqing",,46.535426,125.107043,190,93,22,22,8,15,0,0,1014,92,2,20141101030000
786,"Ranghulu District, Daqing",,46.635123,124.85648,154,67,23,11,6,6,0,0,1014,92,2,20141101030000
787,Daqing,,46.591414,125.110838,190,93,26,22,8,15,0,0,1014,92,2,20141101030000
788,"Locomotive Factory, Mudanjiang",,44.610589,129.652672,228,156,28,21,25,15,2,0,1015,82,2,20141101030000
789,"No. 1 hospital, Mudanjiang",,44.567775,129.617043,220,138,28,25,6,12,2,0,1015,82,2,20141101030000
1220,"EPA building, Mudanjiang",,44.567777,129.620658,227,126,5,19,21,9,2,0,1015,82,2,20141101030000
1221,"Cultural Square, Mudanjiang",,44.586388,129.623164,212,136,2,29,26,9,2,0,1015,82,2,20141101030000
790,Mudanjiang,,44.553619,129.640246,228,156,28,29,26,15,2,0,1015,82,2,20141101030000
791,"Mingzhu Plaza, Hefei",,31.782847,117.201512,247,131,13,14,20,16,16,15,1020,94,3,20141101030000
792,"Sanli Street, Hefei",,31.874637,117.312573,248,125,1,6,3,8,16,15,1020,94,3,20141101030000
793,"Hupo Compound, Hefei",,31.868583,117.264491,267,133,9,7,16,14,16,15,1020,94,3,20141101030000
794,"Dongpu Reservoir, Hefei",,31.90319,117.165584,240,120,13,14,10,9,16,15,1020,94,3,20141101030000
795,"Changjiang middle road, Hefei",,31.855185,117.255484,243,122,10,8,17,16,16,15,1020,94,3,20141101030000
796,"Luyang District, Hefei",,31.941771,117.271504,253,124,8,2,17,13,16,15,1020,94,3,20141101030000
797,"Yaohai District, Hefei",,31.856595,117.341644,257,130,13,10,3,17,16,15,1020,94,3,20141101030000
798,"Baohe District, Hefei",,31.793644,117.307554,250,127,4,4,14,13,16,15,1020,94,3,20141101030000
799,"Lake district, Hefei",,31.736619,117.283501,242,121,22,13,13,12,16,15,1020,94,3,20141101030000
800,"High-tech zone, Hefei",,31.849755,117.129624,252,126,9,6,6,12,16,15,1020,94,3,20141101030000
801,Hefei,,31.819449,117.232753,243,122,10,8,17,16,-,-,0,-,-,20141101030000
802,"Hudong Road No.4 Elementary School, Maanshan",,31.684121,118.511017,174,98,4,19,41,21,18,16,1018,88,3,20141101030000
803,"Tianping Garment Factory, Maanshan",,31.64197,118.488043,173,91,12,17,15,18,18,16,1018,88,3,20141101030000
804,"City education base, Maanshan",,31.711216,118.648913,174,94,14,10,5,11,18,16,1018,88,3,20141101030000
805,"Cihu No.2 elementary school, Maanshan",,31.748546,118.515729,185,91,7,16,29,18,18,16,1018,88,3,20141101030000
806,"Maanshan steel factory power plant, Maanshan",,31.690864,118.48528,174,101,8,15,25,18,18,16,1018,88,3,20141101030000
807,Maanshan,,31.668461,118.511939,185,101,14,19,41,21,18,16,1018,88,3,20141101030000
808,"Science Innovation Center, Wuhu",,31.417056,118.375406,165,72,17,10,5,14,18,16,1018,88,3,20141101030000
809,"No.4 Water Plant, Wuhu",,31.315914,118.376231,156,54,17,17,3,16,18,16,1018,88,3,20141101030000
810,"Monitoring station, Wuhu",,31.348955,118.358154,134,54,8,14,8,16,18,16,1018,88,3,20141101030000
811,"Wuqierling Factory, Wuhu",,31.382068,118.407639,168,88,45,11,8,8,18,16,1018,88,3,20141101030000
812,Wuhu,,31.351007,118.438322,168,88,45,17,8,16,18,16,1018,88,3,20141101030000
813,"Jiangxi Foreign Affairs Office, Nanchang",,28.678027,115.903436,158,59,7,14,8,15,18,15,1018,79,2,20141101030000
814,"Provincial forestry company, Nanchang",,28.69065,115.898546,158,55,8,12,11,9,18,15,1018,79,2,20141101030000
815,"Institute of Forestry, Nanchang",,28.731518,115.82478,95,54,10,5,4,9,18,15,1018,79,2,20141101030000
816,"Jingdong town government, Nanchang",,28.680659,115.972736,153,53,8,8,11,8,18,15,1018,79,2,20141101030000
817,"Contruction Industry College, Nanchang",,28.684018,115.865891,74,25,10,15,6,11,18,15,1018,79,2,20141101030000
818,"Xianghu, Nanchang",,28.637831,115.9033,-,-,-,-,-,-,-,-,0,-,-,20141101030000
819,"Martial Arts School, Nanchang",,28.794538,115.752876,122,61,11,8,6,11,18,15,1018,79,2,20141101030000
820,"Petrifaction Company, Nanchang",,28.608634,115.912999,157,55,8,12,12,10,18,15,1018,79,2,20141101030000
821,"Provincial Station, Nanchang",,28.677155,115.941896,134,60,9,11,8,10,18,15,1018,79,2,20141101030000
822,Nanchang,,28.679883,115.863022,122,61,11,8,6,15,18,15,1018,79,2,20141101030000
939,Sanya,,18.251142,109.515993,42,34,19,4,1,5,30,22,1013,62,4,20141101030000
823,"Lushan Mountain Observatory, Jiujiang",,29.5751,115.998926,38,12,29,2,1,4,10,10,1021,100,5,20141101030000
824,"Shili, Jiujiang",,29.668119,115.992381,155,65,5,13,6,6,10,10,1021,100,5,20141101030000
825,"Maoshantou, Jiujiang",,29.700819,115.967192,124,58,4,17,6,7,10,10,1021,100,5,20141101030000
826,"Xiyuan, Jiujiang",,29.723929,115.998206,127,58,5,12,7,5,10,10,1021,100,5,20141101030000
827,"Wuqierling Factory, Jiujiang",,29.640802,116.022713,117,60,10,3,14,10,10,10,1021,100,5,20141101030000
828,"Water Scientific Research Institute, Jiujiang",,29.679179,116.068081,149,59,5,7,6,5,10,10,1021,100,5,20141101030000
829,"Zonghe Industrial Park, Jiujiang",,29.592047,115.916335,109,50,5,7,8,6,10,10,1021,100,5,20141101030000
830,"Petrochemical General Plant, Jiujiang",,29.738832,116.09463,142,66,6,6,7,4,10,10,1021,100,5,20141101030000
831,Jiujiang,,29.70254,116.007025,155,66,10,17,14,10,10,10,1021,100,5,20141101030000
1332,"Feiyu, Xinyu",,27.844697,115.000136,99,53,6,8,19,,17,,1018,97,3,20141101030000
1333,"Beigang, Xinyu",,27.932491,115.103767,107,61,7,10,22,,17,,1018,97,3,20141101030000
1334,"No.2 water factory, Xinyu",,27.839577,114.933915,112,66,3,10,5,,17,,1018,97,3,20141101030000
1335,"Bureau of Meteorology, Xinyu",,27.81048,114.936507,102,64,5,14,19,,17,,1018,97,3,20141101030000
1336,Xinyu,,27.814351,114.922194,112,66,7,15,22,,17,,1018,97,3,20141101030000
832,"Tobacco Factory, Zhengzhou",,34.753419,113.687131,124,64,11,17,28,22,17,5,1022,45,7,20141101030000
833,"Textile Machinery Factory, Zhengzhou",,34.773366,113.647067,132,79,7,18,34,25,17,5,1022,45,7,20141101030000
834,"Banking College, Zhengzhou",,34.800856,113.681126,132,56,3,14,28,13,17,5,1022,45,7,20141101030000
835,"Water Supply Company, Zhengzhou",,34.807188,113.571089,117,51,6,17,43,11,17,5,1022,45,7,20141101030000
836,"Economic Development Zone Management Committee, Zhengzhou",,34.717652,113.733182,144,67,5,10,33,14,17,5,1022,45,7,20141101030000
837,"No. 47 middle school, Zhengzhou",,34.772211,113.74009,129,51,5,18,24,14,17,5,1022,45,7,20141101030000
838,"City Monitoring Station, Zhengzhou",,34.748404,113.60514,153,63,9,24,31,28,17,5,1022,45,7,20141101030000
839,"Henan Medical University, Zhengzhou",,34.752637,113.641658,149,76,17,22,38,22,17,5,1022,45,7,20141101030000
840,"Gangli Reservoir, Zhengzhou",,34.952652,113.64248,142,50,5,16,30,16,17,5,1022,45,7,20141101030000
841,Zhengzhou,,34.745417,113.631415,149,76,17,22,38,22,-,-,0,-,-,20141101030000
842,"Henan University No.1 Hospital, Kaifeng",,34.799302,114.352706,153,73,3,15,13,14,17,6,1021,48,5,20141101030000
843,"Maternity And Child Hospital, Kaifeng",,34.795803,114.386103,163,82,4,26,15,17,17,6,1021,48,5,20141101030000
844,"Cancer Hospital, Kaifeng",,34.775428,114.350292,160,84,4,17,31,16,17,6,1021,48,5,20141101030000
845,"Yellow River Conservancy Institute, Kaifeng",,34.826066,114.324772,13,6,116,9,31,13,17,6,1021,48,5,20141101030000
846,"Shijixing Kindergarden, Kaifeng",,34.793606,114.302744,144,77,2,16,14,10,17,6,1021,48,5,20141101030000
847,Kaifeng,,34.796346,114.313426,153,73,3,15,13,14,17,6,1021,48,5,20141101030000
852,Jiaozuo,,35.215381,113.248188,160,89,9,27,38,23,16,6,1021,52,6,20141101030000
853,"Cotton Research Institute, Anyang",,36.081435,114.486451,192,131,2,30,51,13,13,10,1021,76,2,20141101030000
854,"Hongmiao Street, Anyang",,36.086733,114.326,13,6,-,-,-,-,13,10,1021,76,2,20141101030000
855,"Yinxing Compound, Anyang",,36.056519,114.36495,161,150,3,36,38,20,13,10,1021,76,2,20141101030000
856,"Tiefo Temple, Anyang",,36.110041,114.309309,263,166,2,37,46,34,13,10,1021,76,2,20141101030000
857,Anyang,,36.097767,114.398846,263,166,3,39,51,34,13,10,1021,76,2,20141101030000
858,"City Monitoring Station, Luoyang",,34.669055,112.439633,149,59,5,19,39,7,13,,1022,73,3,20141101030000
859,"BDA Management Committee, Luoyang",,34.622084,112.390759,104,50,15,11,18,8,13,,1022,73,3,20141101030000
860,"New municipal office, Luoyang",,34.623745,112.432973,87,65,15,14,20,26,13,,1022,73,3,20141101030000
861,"City committee communist party school, Luoyang",,34.650169,112.400212,151,65,9,18,19,5,13,,1022,73,3,20141101030000
862,"Henan Forestry College, Luoyang",,34.685566,112.509429,144,76,5,25,61,43,13,,1022,73,3,20141101030000
863,"CITIC No.2 Elementary School, Luoyang",,34.668212,112.36907,109,64,7,14,30,11,13,,1022,73,3,20141101030000
864,"Yuxi Hotel, Luoyang",,34.685949,112.472611,122,78,8,15,56,34,13,,1022,73,3,20141101030000
865,Luoyang,,34.617424,112.46054,151,78,15,25,61,43,13,,1022,73,3,20141101030000
866,"City Planning Design Institute, Pingdingshan",,33.7352,113.297916,72,42,20,15,24,8,17,6,1021,48,5,20141101030000
867,"Xinhua Hotel, Pingdingshan",,33.737754,113.328814,87,40,16,14,17,12,17,6,1021,48,5,20141101030000
868,"Engineering College, Pingdingshan",,33.772474,113.188235,76,35,9,18,20,5,17,6,1021,48,5,20141101030000
